"nodeID","nodeLabel","latitude","longitude","mode","year"
1,"Vila Madalena",-23.5466454510731,-46.6908295308194,"heavy_rail",1998
2,"Sumaré",-23.5507954263083,-46.6781230791457,"heavy_rail",1998
3,"Clínicas",-23.5540300136644,-46.6708787077319,"heavy_rail",1992
4,"Oratório",-23.582193936506,-46.5620131339815,"heavy_rail",2014
5,"Vila Prudente",-23.5846406151635,-46.5833373083514,"brt|heavy_rail",2014
6,"Consolação",-23.557730513936,-46.66060864036,"heavy_rail",1991
7,"Trianon-Masp",-23.5636053908348,-46.6538676517712,"heavy_rail",1991
8,"Brigadeiro",-23.5686457132111,-46.6476745923756,"heavy_rail",1991
9,"Paraíso",-23.5754381700463,-46.6405887900028,"heavy_rail",1975
10,"Ana Rosa",-23.5812342383297,-46.6385117226851,"heavy_rail",1975
11,"Chácara Klabin",-23.5928228013706,-46.630021619415,"heavy_rail",2006
12,"Santos-Imigrantes",-23.5959083049547,-46.6207194324734,"heavy_rail",2006
13,"Alto do Ipiranga",-23.6023539563497,-46.6126206382096,"heavy_rail",2007
14,"Sacomã",-23.6015036518795,-46.6028478533158,"heavy_rail",2010
15,"Tamanduateí",-23.5927417175601,-46.5894408608049,"heavy_rail",2010
16,"Sé",-23.5505029193684,-46.6335330680371,"heavy_rail",1978
17,"Santana",-23.5025735525175,-46.6247536941129,"heavy_rail",1975
18,"Carandiru",-23.5091484880747,-46.6249376461218,"heavy_rail",1975
19,"Brás",-23.5478434188767,-46.6158085623285,"heavy_rail",1979
20,"Pedro II",-23.549689200309,-46.6259356278644,"heavy_rail",1980
21,"Bresser-Mooca",-23.5463802163191,-46.6070732787589,"heavy_rail",1920
22,"Tucuruvi",-23.4800988859152,-46.603311062376,"heavy_rail",1998
23,"Parada Inglesa",-23.4870312750074,-46.6088674231485,"heavy_rail",1998
24,"Jardim São Paulo-Ayrton Senna",-23.4923292820472,-46.6167333324331,"heavy_rail",1998
25,"Faria Lima",-23.5674976428823,-46.6936523359448,"heavy_rail",2010
26,"Paulista",-23.5552966691457,-46.6622619557436,"heavy_rail",2010
27,"Vergueiro",-23.5686277155777,-46.639891492489,"heavy_rail",1975
28,"São Joaquim",-23.561912894742,-46.638702917988,"heavy_rail",1975
29,"Liberdade",-23.5553530148412,-46.635891129435,"heavy_rail",1975
30,"São Bento",-23.5443165862726,-46.6335359521115,"heavy_rail",1975
31,"Luz",-23.5362932587796,-46.6336176056162,"heavy_rail",1975
32,"Tiradentes",-23.5309720902441,-46.6321850745944,"heavy_rail",1975
33,"Armênia",-23.525463381147,-46.6293255209238,"heavy_rail",1975
34,"Portuguesa-Tietê",-23.5162494639984,-46.6251714369338,"heavy_rail",1975
35,"Jabaquara",-23.6463192288709,-46.6411743657494,"heavy_rail",1974
36,"Conceição",-23.6353122443159,-46.6411684558115,"heavy_rail",1974
37,"Vila Mariana",-23.5894920094245,-46.6347314558281,"heavy_rail",1974
38,"Santa Cruz",-23.5987449997134,-46.636641304405,"heavy_rail",1974
39,"Praça da Árvore",-23.6105349811127,-46.637899749794,"heavy_rail",1974
40,"Saúde",-23.6185970840843,-46.6392448810321,"heavy_rail",1974
41,"São Judas",-23.6256121876921,-46.6407875785952,"heavy_rail",1974
42,"Luz",-23.5351889539518,-46.6354420311619,"heavy_rail",1867
43,"Palmeiras - Barra Funda",-23.5255487673048,-46.6674878262265,"heavy_rail",1892
44,"Água Branca",-23.5213359856049,-46.6887854308916,"heavy_rail",1867
45,"Lapa",-23.5175834002236,-46.7038128452315,"heavy_rail",1899
46,"Piqueri",-23.5024917805688,-46.7149386234111,"heavy_rail",1960
47,"Pirituba",-23.4883977011845,-46.7260789189841,"heavy_rail",1885
48,"Vila Clarice",-23.4697434487965,-46.7446687336212,"heavy_rail",1955
49,"Jaraguá",-23.455118400932,-46.7388178116752,"heavy_rail",1891
50,"Vila Aurora",-23.4387976619261,-46.7470209654544,"heavy_rail",2013
51,"Perus",-23.4050461333132,-46.7535030116484,"heavy_rail",1867
52,"Caieiras",-23.366160644551,-46.7516025838501,"heavy_rail",1883
53,"Franco da Rocha",-23.3295320547191,-46.7262899514726,"heavy_rail",1888
54,"Baltazar Fidélis",-23.310090353741,-46.7232426033336,"heavy_rail",1955
55,"Francisco Morato",-23.2837643685057,-46.7423388217892,"heavy_rail",1867
56,"Belém",-23.5429245714359,-46.5895598419364,"heavy_rail",1981
57,"Anhangabaú",-23.5478338911298,-46.6392522548875,"heavy_rail",1983
58,"República",-23.5444160305891,-46.6428002006023,"heavy_rail",1982
59,"Santa Cecília",-23.5391003297521,-46.6493187299915,"heavy_rail",1983
60,"Marechal Deodoro",-23.5340944280007,-46.6555746368016,"heavy_rail",1988
61,"Júlio Prestes",-23.5327954272316,-46.6408109917917,"heavy_rail",1938
62,"Lapa",-23.520026122739,-46.699109049315,"heavy_rail",1958
63,"Domingos de Moraes",-23.5188562331042,-46.7216209508032,"heavy_rail",1920
64,"Imperatriz Leopoldina",-23.5240762962053,-46.7379744485751,"heavy_rail",1931
65,"Presidente Altino",-23.5312735228912,-46.7619304282308,"heavy_rail",1919
66,"Osasco",-23.5277799637129,-46.7758938147506,"heavy_rail",1892
67,"Comandante Sampaio",-23.5256718024542,-46.7957170289314,"heavy_rail",1946
68,"Quitaúna",-23.5227613207705,-46.80713301073,"heavy_rail",1929
69,"General Miguel Costa",-23.5235050656436,-46.8158677677478,"heavy_rail",1951
70,"Carapicuíba",-23.5185786662917,-46.8353069707753,"heavy_rail",1921
71,"Santa Terezinha ",-23.5165524813813,-46.8479537760273,"heavy_rail",1940
72,"Antônio João",-23.5168990154237,-46.8586648109761,"heavy_rail",1941
73,"Barueri",-23.5125951466992,-46.8748594720662,"heavy_rail",1875
74,"Jardim Belval",-23.5142090242218,-46.8893080719821,"heavy_rail",1966
75,"Jardim Silveira",-23.5234570427701,-46.8935385281262,"heavy_rail",1951
76,"Jandira",-23.5276190947825,-46.9022073269519,"heavy_rail",1925
77,"Sagrado Coração",-23.5292670987233,-46.9175444598008,"heavy_rail",1955
78,"Engenheiro Cardoso",-23.5352592127039,-46.9288702399134,"heavy_rail",1951
79,"Santa Rita",-23.5441669258723,-46.9532595395352,"heavy_rail",1975
80,"Amador Bueno",-23.5305887229121,-46.9838071251651,"heavy_rail",1922
81,"Itapevi",-23.5457124664231,-46.9353668263975,"heavy_rail",1875
82,"Penha",-23.5335850976384,-46.5425327512577,"heavy_rail",1894
83,"Carrão",-23.5379011623785,-46.5644196326761,"heavy_rail",1934
84,"Corinthians-Itaquera",-23.5420750473954,-46.471102842918,"heavy_rail",1988
85,"Artur Alvim",-23.5403769062523,-46.4842927845331,"heavy_rail",1921
86,"Patriarca",-23.5311308942642,-46.5015463443485,"heavy_rail",1948
87,"Guilhermina-Esperança",-23.5293825743371,-46.5166769083729,"heavy_rail",1988
88,"Vila Matilde",-23.5319102297562,-46.53096618726,"heavy_rail",1921
89,"Grajaú",-23.736403707301,-46.6970668624602,"heavy_rail",1992
90,"Primavera - Interlagos",-23.7228446078,-46.6917410136968,"heavy_rail",1957
91,"Autódromo",-23.7060029991959,-46.6884311923841,"heavy_rail",1957
92,"Jurubatuba",-23.6772972436992,-46.7024331928582,"heavy_rail",1957
93,"Socorro",-23.663285023451,-46.7108594229958,"heavy_rail",1960
94,"Granja Julieta",-23.6275235216568,-46.711964281468,"heavy_rail",2000
95,"Morumbi",-23.6216383859911,-46.7016438162637,"heavy_rail",1957
96,"Berrini",-23.6047347770787,-46.6967728934519,"heavy_rail",2000
97,"Vila Olímpia",-23.5933073597235,-46.6926971071198,"heavy_rail",1960
98,"Cidade Jardim",-23.5852971279031,-46.6910234089929,"heavy_rail",1970
99,"Hebraica - Rebouças",-23.5734846532166,-46.6988909000214,"heavy_rail",2000
100,"Pinheiros",-23.5675641610353,-46.7025529428111,"heavy_rail",1957
101,"Cidade Universitária",-23.5576268153374,-46.711839013465,"heavy_rail",1981
102,"Villa Lobos - Jaguaré",-23.5459209564364,-46.7329356692296,"heavy_rail",1960
103,"Ceasa",-23.5375260727419,-46.7425540602442,"heavy_rail",1981
104,"Luz",-23.5352381268962,-46.6353658715545,"heavy_rail",1867
105,"Rio Grande da Serra",-23.7440475025406,-46.3913577810883,"heavy_rail",1867
106,"Ribeirão Pires",-23.7139912095,-46.4145114383413,"heavy_rail",1885
107,"Guapituba",-23.691849847295,-46.4489532987653,"heavy_rail",1907
108,"Mauá",-23.6682039089096,-46.4613315922401,"heavy_rail",1883
109,"Capuava",-23.6583751546445,-46.4899148934363,"heavy_rail",1920
110,"Prefeito Celso Daniel - Santo André",-23.6520391727231,-46.5286286453973,"heavy_rail",1867
111,"Prefeito Saladino",-23.6377525010728,-46.5371473769311,"heavy_rail",1952
112,"Utinga",-23.6261661046335,-46.5440739425479,"heavy_rail",1933
113,"São Caetano",-23.6101006609885,-46.5700231750945,"heavy_rail",1883
114,"Ipiranga",-23.5824815243211,-46.5965522865905,"heavy_rail",1886
115,"Juventus - Mooca",-23.557950834584,-46.6083650536381,"heavy_rail",1898
116,"Butantã",-23.5722833105179,-46.7081265697774,"heavy_rail",2011
117,"Fradique Coutinho",-23.5661660208305,-46.684209076516,"heavy_rail",2014
118,"Adolfo Pinheiro",-23.6499788907928,-46.7040232191221,"heavy_rail",2014
119,"Capão Redondo",-23.658999508643,-46.7679053833445,"heavy_rail",2002
120,"Campo Limpo",-23.6490404999325,-46.7590205992884,"heavy_rail",2002
121,"Vila das Belezas",-23.640210072607,-46.7459724817494,"heavy_rail",2002
122,"Giovanni Gronchi",-23.6439613013843,-46.7340723032386,"heavy_rail",2002
123,"Santo Amaro",-23.6554988040693,-46.7197353328288,"heavy_rail",2002
124,"Largo Treze",-23.6539761318081,-46.7078441976342,"heavy_rail",2002
125,"Estudantes",-23.5157236624529,-46.1847744535094,"heavy_rail",1976
126,"Mogi das Cruzes",-23.5218731303109,-46.1979743495367,"heavy_rail",1875
127,"Brás Cubas",-23.5362406038472,-46.2250042903354,"heavy_rail",1914
128,"Jundiapeba",-23.542801577335,-46.2580859961338,"heavy_rail",1914
129,"Suzano",-23.5341757951341,-46.3077298889752,"heavy_rail",1875
130,"Calmon Viana",-23.5254238826207,-46.3328734588884,"heavy_rail",1926
131,"Poá",-23.5252403754528,-46.3433354386649,"heavy_rail",1875
132,"Ferraz de Vasconcelos",-23.5408571340395,-46.3681623181837,"heavy_rail",1926
133,"Antônio Gianetti Neto",-23.5544589728132,-46.3836668494694,"heavy_rail",1998
134,"Guaianazes",-23.5423719835785,-46.4153525174635,"heavy_rail",1875
135,"José Bonifácio",-23.5391920398751,-46.4312918256238,"heavy_rail",2000
136,"Dom Bosco",-23.5418120628959,-46.4480986822928,"heavy_rail",2000
137,"Tatuapé",-23.5403153454599,-46.5764209692625,"heavy_rail",1934
138,"Brás",-23.5451271640241,-46.6163132895302,"heavy_rail",1875
139,"Aracaré",-23.500077009891,-46.3391682992842,"heavy_rail",1950
140,"Itaquaquecetuba",-23.4860623897154,-46.3479479445309,"heavy_rail",1926
141,"Engenheiro Manoel Feio",-23.4793110137362,-46.3682183302,"heavy_rail",1926
142,"Jardim Romano",-23.4850285015179,-46.3857534286331,"heavy_rail",2008
143,"Itaim Paulista",-23.4939519428525,-46.4022937380433,"heavy_rail",1926
144,"Jardim Helena - Vila Mara",-23.492698194286,-46.4216597099166,"heavy_rail",2008
145,"São Miguel Paulista",-23.4905506879657,-46.4436431598829,"heavy_rail",1926
146,"Comendador Ermelino",-23.4851441779811,-46.4822888284901,"heavy_rail",1926
147,"USP Leste",-23.4854913222102,-46.5008203417078,"heavy_rail",2008
148,"Engenheiro Goulart",-23.4981304923497,-46.5202182031507,"heavy_rail",1926
149,"Paranapiacaba",-23.7780217717436,-46.3030655380244,"light_rail",2009
150,"Prefeito Celso Daniel - Santo André",-23.6519128578707,-46.5282105373069,"light_rail",2009
151,"Mogi das Cruzes",-23.5216157990353,-46.1982150609488,"light_rail",2009
152,"Luz",-23.5350376749992,-46.6353696527616,"light_rail",2009
153,"Luz",-23.5350488418823,-46.6352722122231,"light_rail",2009
154,"Luz",-23.5350711756457,-46.6352722122231,"light_rail",2009
155,"Varginha",-23.76661726739,-46.7147879308226,"heavy_rail",2025
156,"Mendes",-23.7485930477133,-46.7067964380596,"heavy_rail",2021
157,"Vila Sônia",-23.5921294325874,-46.7321441270932,"heavy_rail",2021
158,"Brasilândia",-23.4635045395539,-46.6957126032136,"heavy_rail",
159,"São Mateus",-23.6117997617335,-46.4759629296544,"heavy_rail",2019
160,"Engenheiro Goulart",-23.4977495080526,-46.520474164089,"heavy_rail",2017
161,"Aeroporto",-23.4326400933044,-46.4928078074659,"heavy_rail",2018
162,"Guarulhos - CECAP",-23.4474728197668,-46.4922116847846,"heavy_rail",2018
163,"Higienópolis - Mackenzie",-23.5498329914723,-46.6537579351644,"heavy_rail",2018
164,"Oscar Freire",-23.5610176787103,-46.6731070587511,"heavy_rail",2018
165,"São Paulo - Morumbi",-23.5866476930099,-46.7236077980552,"heavy_rail",2018
166,"Alto da Boa Vista",-23.6416842867371,-46.699600285109,"heavy_rail",2017
167,"Hospital São Paulo",-23.5982132368125,-46.6456058391478,"heavy_rail",2018
168,"AACD - Servidor",-23.5977477002395,-46.6520926057426,"heavy_rail",2018
169,"Eucaliptos",-23.6102294777766,-46.6685035282917,"heavy_rail",2018
170,"Moema",-23.60360649512,-46.661796578061,"heavy_rail",2018
171,"Brooklin",-23.6264139406792,-46.687914742475,"heavy_rail",2017
172,"Borba Gato",-23.6326627440589,-46.6922317161773,"heavy_rail",2017
173,"São Joaquim",-23.5617223183996,-46.6389048679011,"heavy_rail",
174,"Higienópolis - Mackenzie",-23.5496748926238,-46.6534132250558,"heavy_rail",
175,"Água Branca",-23.5211055847206,-46.6881909623193,"heavy_rail",
176,"Santa Marina",-23.5152893506923,-46.6909068658819,"heavy_rail",
177,"Freguesia do Ó",-23.5022378436352,-46.6935638219152,"heavy_rail",
178,"Maristela",-23.4753285020119,-46.6958761919498,"heavy_rail",999999
179,"Itaberaba",-23.4839570019403,-46.6914601459167,"heavy_rail",
180,"João Paulo I",-23.4920874748924,-46.6906612385173,"heavy_rail",
181,"Bela Vista",-23.5603807541924,-46.6433807008888,"heavy_rail",999999
182,"14 Bis-Saracura",-23.555682229204,-46.6499018028057,"heavy_rail",
183,"SESC - Pompeia",-23.5293570549185,-46.6829888170034,"heavy_rail",
184,"Angélica - Pacaembu",-23.5466067061652,-46.6591809130964,"heavy_rail",
185,"Perdizes",-23.5365209508857,-46.6740431883607,"heavy_rail",
186,"PUC - Cardoso de Almeida",-23.5417422011944,-46.6648088421151,"heavy_rail",
187,"São Lucas",-23.5885882160255,-46.5449200828247,"heavy_rail",2018
188,"Camilo Haddad",-23.59474938514,-46.5383734991746,"heavy_rail",2018
189,"Jardim Planalto",-23.6049809089217,-46.5087956310084,"heavy_rail",2019
190,"Vila Tolstói",-23.5999246335047,-46.5286244645125,"heavy_rail",2018
191,"Vila União",-23.6028761633558,-46.5165330715725,"heavy_rail",2018
192,"Sapopemba",-23.614715602822,-46.5012428569837,"heavy_rail",2019
193,"Fazenda da Juta",-23.6112981046689,-46.4870201425853,"heavy_rail",2019
194,"Morumbi",-23.621667235663,-46.7018598467174,"heavy_rail",
195,"Chucri Zaidan",-23.613519175316,-46.6952283470593,"heavy_rail",
196,"Vila Cordeiro",-23.6151733396738,-46.68956941464,"heavy_rail",999999
197,"Campo Belo",-23.6190793185826,-46.6825460283833,"heavy_rail",999999
198,"Jardim Aeroporto",-23.6354014416806,-46.6661565047934,"heavy_rail",
199,"Congonhas",-23.6274630389516,-46.6614510719854,"heavy_rail",
200,"Vereador José Diniz",-23.6219707881269,-46.6791266151858,"heavy_rail",
201,"Brooklin Paulista",-23.629028055304,-46.67437394442,"heavy_rail",
202,"Paranapiacaba",-23.778043338911,-46.3030916586712,"light_rail",1867
203,"Mooca",-23.5579163177716,-46.6082855306422,"light_rail",1898
204,"Hospedaria dos Imigrantes",-23.5495218236699,-46.6136267523351,"light_rail",1888
205,"Mineral",-23.3988092211257,-46.7761974274046,"light_rail",1914
206,"Santa Fé",-23.4012787501369,-46.8231142812797,"light_rail",1914
207,"Natura",-23.4008253273628,-46.8345790802174,"light_rail",2008
208,"Ecologia",-23.4042616792889,-46.7892569016537,"light_rail",1914
209,"Luis Carlos",-23.4589449306778,-46.0582242016989,"light_rail",1914
210,"Guararema",-23.414362274304,-46.0320833229021,"light_rail",1876
211,"Diadema",-23.6852919297342,-46.6259326630955,"bus",1990
212,"Berrini",-23.6060116868036,-46.6933454637221,"bus",2010
213,"Morumbi",-23.6224385413789,-46.6971143584613,"bus",2010
214,"Jabaquara",-23.6466666996907,-46.6397265137889,"bus",1990
215,"Piraporinha",-23.6916450116318,-46.5849012064282,"bus",1990
216,"São Bernardo",-23.6983180198032,-46.552228479604,"bus",1988
217,"Ferrazópolis",-23.7206686537974,-46.5511033188226,"bus",1988
218,"Santo André",-23.6517817383642,-46.5269185623527,"bus",1988
219,"São Mateus",-23.6134666545209,-46.476192825249,"bus",1988
220,"Sônia Maria",-23.6238454503042,-46.4813388136166,"bus",1988
221,"Mercado",-23.5465268402853,-46.6293281854647,"brt",2007
222,"Pedro II",-23.5502376448402,-46.6270625704508,"brt",2007
223,"Ana Neri",-23.558726111052,-46.6150479056801,"brt",2007
224,"Alberto Lion",-23.5641594582715,-46.6113436937947,"brt",2007
225,"Sacomã",-23.6028880715056,-46.6030586694868,"brt",2007
226,"Rua do Grito",-23.5980912880531,-46.5972676715472,"brt",2007
227,"Nossa Senhora Aparecida",-23.5914023071136,-46.5978959847074,"brt",2007
228,"Clube Atlético Ypiranga",-23.5744920587682,-46.6032095099205,"brt",2007
229,"Dianópolis",-23.5856912019867,-46.5883734401365,"brt",2009
230,"Vila Prudente",-23.5841863844272,-46.5860042609925,"bus",1970
231,"Taboão",-23.4345553405319,-46.4949334755263,"bus",2012
232,"CECAP",-23.461699661154,-46.4973389609711,"bus",2012
233,"Vila Galvão",-23.4573046505857,-46.5666593978397,"bus",2014
234,"Itapevi",-23.5460064966809,-46.935002315944,"bus",2012
235,"Jandira",-23.5279073519649,-46.9020746718948,"bus",2012
236,"Barueri",-23.5130564618576,-46.8747407218552,"bus",
237,"Carapicuíba",-23.5188595568533,-46.8356203297846,"bus",2016
238,"Osasco - Km 21",-23.5238878414316,-46.8158229033881,"bus",2017
239,"Parelheiros",-23.8041118613952,-46.7351828580417,"bus",2004
240,"Varginha",-23.7660923717092,-46.7168560844534,"bus",2004
241,"Grajaú",-23.7360849337384,-46.6994457681813,"bus",2004
242,"Guarapiranga",-23.6658126747653,-46.7120406217931,"bus",2004
243,"Jd. Ângela",-23.6921322229132,-46.7769158287458,"bus",2004
244,"Capelinha",-23.659016131407,-46.7662630232751,"bus",2000
245,"João Dias",-23.6434266367641,-46.7340460253012,"bus",2000
246,"Santo Amaro",-23.6545227521152,-46.708143976197,"bus",2004
247,"Pirituba",-23.4846545416312,-46.7159657866258,"bus",2003
248,"Vila Nova Cachoeirinha",-23.4803599400324,-46.6733292908017,"bus",1991
249,"Lapa",-23.5207416393364,-46.7001240350392,"bus",2003
250,"Bandeira",-23.5494109697999,-46.6422307844049,"bus",2000
251,"Amaral Gurgel",-23.5374467909688,-46.6488023315738,"bus",2003
252,"Princesa ISabel",-23.5340939192785,-46.6443544223914,"bus",1991
253,"Botujuru",-23.2359467,-46.7675788,"heavy_rail",1908
254,"Campo Limpo Paulista",-23.2067511,-46.7853705,"heavy_rail",1881
255,"Várzea Paulista",-23.2088762,-46.8292035,,0
256,"Várzea Paulista",-23.20891,-46.8291902,"heavy_rail",1891
257,"Jundiaí",-23.1947789,-46.8724945,"heavy_rail",1867
258,"Jardim Colonial",-23.5985750808619,-46.4676168726305,"heavy_rail",2021
259,"Utinga",-23.6261921,-46.5440164,,0
260,"Prefeito Celso Daniel - Santo André",-23.6520379,-46.5280812,,0
261,"Prefeito Saladino - Santo André",-23.6373996,-46.5372494,,0
262,"Prefeito Saladino - Santo André",-23.637468,-46.5373139,,0
263,"Utinga",-23.6262316,-46.544107,,0
264,"Atracadouro Mar Paulista",-23.6977999,-46.6681054,"ferry",2024
265,"Atracadouro Cantinho do Céu",-23.7392687,-46.6558437,"ferry",2024
266,"Orfanato",-23.5782948699012,-46.5755413412377,"heavy_rail",9999
267,"Santa Clara",-23.573411016202,-46.5662705030339,"heavy_rail",9999
268,"Anália Franco",-23.5639795283824,-46.5602629109735,"heavy_rail",9999
269,"Vila Formosa",-23.5622971904333,-46.5512201588904,"heavy_rail",9999
270,"Santa Isabel",-23.5547986167303,-46.5454791667055,"heavy_rail",9999
271,"Guilherme Giorgi",-23.5468785414687,-46.5412295579892,"heavy_rail",9999
272,"Aricanduva",-23.5397262657451,-46.5412761528816,"heavy_rail",9999
