"nodeID","nodeLabel","latitude","longitude","mode","year"
1,"苹果园 Píngguǒyuán",39.9247728434188,116.172826520197,"heavy_rail",2023
2,"古城 Gǔchéng",39.9062071178445,116.186307577335,"heavy_rail",1971
3,"八角游乐园 Bājiǎo Yóulèyuán",39.9062008662384,116.206980505159,"heavy_rail",1971
4,"八宝山 Bābǎoshān",39.9062054077312,116.22959,"heavy_rail",1971
5,"玉泉路 Yùquán Lù",39.906203550463,116.246883288872,"heavy_rail",1971
6,"五棵松 Wǔkēsōng",39.9062273267072,116.267944778666,"heavy_rail",1971
7,"万寿路 Wànshòu Lù",39.9062894419391,116.288966863116,"heavy_rail",1971
8,"公主坟 Gōngzhǔfén",39.9063022296939,116.30355,"heavy_rail",1971
9,"军事博物馆 Jūnshì Bówùguǎn (Military Museum)",39.9062908600297,116.315839306637,"heavy_rail",1971
10,"木樨地 Mùxīdì",39.9062318696814,116.331073771572,"heavy_rail",1971
11,"南礼士路 Nánlǐshì Lù",39.90598604618,116.344571216164,"heavy_rail",1971
12,"安河桥北 Ānhéqiáo Běi (Anheqiao North)",40.0112424445684,116.263944137493,"heavy_rail",2009
13,"北宫门 Běigōngmén",40.0010540368254,116.272595454679,"heavy_rail",2009
14,"西苑 Xīyuàn",39.9974580310053,116.284924565397,"heavy_rail",2009
15,"圆明园 Yuánmíngyuán (Yuanmingyuan Park)",39.998487222612,116.305231237934,"heavy_rail",2009
16,"北京大学东门 Běijīng Dàxué Dōngmén (Peking Univ. East Gate)",39.9908430992558,116.309987044757,"heavy_rail",2009
17,"中关村 Zhōngguāncūn",39.9828046296802,116.31038229468,"heavy_rail",2009
18,"海淀黄庄 Hǎidiàn Huángzhuāng",39.9742649101057,116.311804175985,"heavy_rail",2009
19,"人民大学 Rénmín Dàxué (Renmin University)",39.9647643394713,116.315540956676,"heavy_rail",2009
20,"魏公村 Wèigōngcūn",39.9559818193315,116.317249541385,"heavy_rail",2009
21,"国家图书馆 Guójiā Túshūguǎn (National Library)",39.9436676819275,116.31881100268,"heavy_rail",2009
22,"动物园 Dòngwùyuán (Beijing Zoo)",39.9370185367471,116.332278073767,"heavy_rail",2009
23,"西直门 Xīzhímén",39.9390263959985,116.349508017825,"heavy_rail",2009
24,"新街口 Xīnjiēkǒu",39.9390978398569,116.361186940524,"heavy_rail",2009
25,"平安里 Ping'anli",39.9322184588218,116.366728039404,"heavy_rail",2009
26,"西四 Xīsì",39.9217060910495,116.367222644905,"heavy_rail",2009
27,"灵境胡同 Língjìng Hútòng",39.91443,116.367583243092,"heavy_rail",2009
28,"西单 Xīdān",39.9069721285843,116.367981568625,"heavy_rail",2009
29,"菜市口 Càishìkǒu",39.8884845074289,116.368279867322,"heavy_rail",2009
30,"宣武门 Xuānwǔmén",39.897948141033,116.368282572325,"heavy_rail",2009
31,"陶然亭 Táorántíng",39.8770106986669,116.368235939912,"heavy_rail",2009
32,"北京南站 Běijīngnán zhàn (Beijing South Railway Station)",39.8634909973434,116.370329446228,"heavy_rail",2009
33,"马家堡 Mǎjiāpù",39.8515573313085,116.365150491213,"heavy_rail",2009
34,"角门西 Jiǎomén Xī (Jiaomen West)",39.8448873046059,116.365033726702,"heavy_rail",2009
35,"公益西桥 Gōngyì Xīqiáo",39.8352685920246,116.364660680995,"heavy_rail",2009
36,"新宫 Xīngōng",39.8110225142418,116.359545461551,"heavy_rail",2010
37,"西红门 Xīhóngmén",39.78851,116.322611952176,"heavy_rail",2010
38,"高米店北 Gāomǐdiàn Běi (Gaomidian North)",39.7728723652,116.324670805664,"heavy_rail",2010
39,"高米店南 Gāomǐdiàn Nán (Gaomidian South)",39.7622555641089,116.325523772287,"heavy_rail",2010
40,"枣园 Zǎoyuán",39.7518124181513,116.326369031606,"heavy_rail",2010
41,"清源路 Qīngyuán Lù",39.7408667000354,116.326248664858,"heavy_rail",2010
42,"黄村西大街 Huángcūn Xīdàjiē",39.730685943246,116.326477959718,"heavy_rail",2010
43,"黄村火车站 Huángcūn Huǒchē zhàn (Huangcun Railway Station)",39.7216298049596,116.326732724666,"heavy_rail",2010
44,"义和庄 Yìhézhuāng",39.709920570305,116.313827417216,"heavy_rail",2010
45,"生物医药基地 Shēngwùyīyào Jīdì (Biomedical Base)",39.6868299231528,116.315968221059,"heavy_rail",2010
46,"天宫院 Tiāngōngyuàn",39.6680821915565,116.313895773979,"heavy_rail",2010
47,"宋家庄 Sòngjiāzhuāng",39.8447788669924,116.422144594416,"heavy_rail",2007
48,"刘家窑 Liújiāyáo",39.8554064755027,116.415759572366,"heavy_rail",2007
49,"蒲黄榆 Púhuángyú",39.86368,116.415605462139,"heavy_rail",2007
50,"天坛东门 Tiāntán Dōngmén (Temple of Heaven East Gate)",39.8818643001623,116.414555264225,"heavy_rail",2007
51,"磁器口 Cíqìkǒu",39.8906483281059,116.412695353726,"heavy_rail",2007
52,"崇文门 Chóngwénmén",39.8992865247791,116.412275514908,"heavy_rail",2007
53,"东单 Dōngdān",39.90732,116.411913099099,"heavy_rail",2007
54,"灯市口 Dēngshìkǒu",39.9152582410906,116.411567894572,"heavy_rail",2007
55,"东四 Dōngsì",39.9218794317214,116.411334691553,"heavy_rail",2007
56,"张自忠路 Zhāngzìzhōng Lù",39.9318878094208,116.410927080717,"heavy_rail",2007
57,"北新桥 Běixīnqiáo",39.9395420955408,116.4106,"heavy_rail",2007
58,"雍和宫 Yōnghégōng (Lama Temple)",39.9469632703883,116.410404058497,"heavy_rail",2007
59,"和平里北街 Hépínglǐ Běijiē",39.9571599608872,116.412068942779,"heavy_rail",2007
60,"和平西桥 Hépíng Xīqiáo",39.9660474469349,116.411918272284,"heavy_rail",2007
61,"惠新西街南口 Huìxīn Xījiē Nánkǒu",39.9765054869602,116.411487282036,"heavy_rail",2007
62,"惠新西街北口 Huìxīn Xījiē Běikǒu",39.9859260440804,116.41088902186,"heavy_rail",2007
63,"大屯路东 Dàtúnlù Dōng (Datunlu East)",40.0023482165446,116.411000563086,"heavy_rail",2007
64,"北苑路北 Běiyuànlù Běi (Beiyuanlu North)",40.0289365876361,116.411973547621,"heavy_rail",2007
65,"立水桥南 Lìshuǐqiáo Nán (Lishuiqiao South)",40.0408484359626,116.408035426557,"heavy_rail",2007
66,"立水桥 Lìshuǐqiáo",40.051707890092,116.406017768623,"heavy_rail",2007
67,"天通苑南 Tiāntōngyuàn Nán (Tiantongyuan South)",40.0651347367053,116.406262897465,"heavy_rail",2007
68,"天通苑 Tiantongyuan",40.0737349551286,116.406462345019,"heavy_rail",2007
69,"天通苑北 Tiāntōngyuàn Běi (Tiantongyuan North)",40.0825744516451,116.406686119215,"heavy_rail",2007
70,"积水潭 Jīshuǐtán",39.9475345038944,116.367597990858,"heavy_rail",1984
71,"西直门 Xīzhímén",39.9393169521651,116.349205672555,"heavy_rail",1984
72,"海淀五路居 Hǎidiàn Wǔlùjū",39.9314023121155,116.271029028715,"heavy_rail",2012
73,"慈寿寺 Císhòusì",39.9315643462374,116.288423607464,"heavy_rail",2012
74,"花园桥 Huāyuánqiáo",39.9311630537777,116.304110087962,"heavy_rail",2012
75,"白石桥南 Èrlǐgōu",39.9311331554949,116.32717308559,"heavy_rail",2022
76,"白石桥南 Báishíqiáo Nán (Baishiqiao South)",39.9312610885208,116.319001691351,"heavy_rail",2012
77,"车公庄西 Chēgōngzhuāng Xī (Chegongzhuang West)",39.931060103342,116.338143360523,"heavy_rail",2012
78,"车公庄 Chēgōngzhuāng",39.9310693158158,116.350256400837,"heavy_rail",2012
79,"平安里 Ping'anli",39.9311361221288,116.365043407587,"heavy_rail",2012
80,"北海北 Běihǎi Běi (Beihai North)",39.9317234664184,116.381749353056,"heavy_rail",2012
81,"南锣鼓巷 Nánluógǔ Xiàng",39.93167,116.396309427248,"heavy_rail",2012
82,"东四 Dōngsì",39.922982293766,116.409207909107,"heavy_rail",2012
83,"朝阳门 Cháoyángmén",39.9230650746528,116.426453698795,"heavy_rail",2012
84,"东大桥 Dōngdàqiáo",39.9219756406081,116.444819199177,"heavy_rail",2012
85,"呼家楼 Hūjiālóu",39.9219681610313,116.455078081406,"heavy_rail",2012
86,"金台路 Jīntái Lù",39.9216530054494,116.471396340482,"heavy_rail",2012
87,"十里堡 Shílǐpù",39.9216612067445,116.497052732645,"heavy_rail",2012
88,"青年路 Qīngnián Lù",39.9218152660951,116.51101311844,"heavy_rail",2012
89,"褡裢坡 Dālianpō",39.9229781006212,116.558387511548,"heavy_rail",2012
90,"黄渠 Huángqú",39.9235841498581,116.575222427355,"heavy_rail",2012
91,"常营 Chángyíng",39.9243473347864,116.59389619353,"heavy_rail",2012
92,"草房 Cǎofáng",39.923489551902,116.60910848896,"heavy_rail",2012
93,"国贸 Guómào",39.9079781467789,116.455551798326,"heavy_rail",2008
94,"金台夕照 Jīntái Xīzhào",39.9143338524144,116.455575385438,"heavy_rail",2008
95,"呼家楼 Hūjiālóu",39.9217002654449,116.455592342875,"heavy_rail",2008
96,"团结湖 Tuánjiéhú",39.9320601760333,116.45559,"heavy_rail",2008
97,"农业展览馆 Nóngyè Zhǎnlǎnguǎn (Agricultural Exhibition Center)",39.9400392389576,116.455619887136,"heavy_rail",2008
98,"亮马桥 Liàngmǎqiáo",39.9478682182455,116.455682159927,"heavy_rail",2008
99,"三元桥 Sānyuán Qiáo",39.9599727106064,116.450933062144,"heavy_rail",2008
100,"太阳宫 Tàiyanggōng",39.9709165961096,116.441894873067,"heavy_rail",2008
101,"芍药居 Sháoyàojū",39.9753529360094,116.430507679579,"heavy_rail",2008
102,"惠新西街南口 Huìxīn Xījiē Nánkǒu",39.9757526276243,116.410707253616,"heavy_rail",2008
103,"安贞门 Ānzhēnmén",39.9756827279556,116.40145457489,"heavy_rail",2008
104,"北土城 Běitǔchéng",39.975524577746,116.389108959389,"heavy_rail",2008
105,"健德门 Jiàndémén",39.9753866161197,116.374683067323,"heavy_rail",2008
106,"牡丹园 Mǔdānyuán",39.9752849073115,116.363217189259,"heavy_rail",2008
107,"西土城 Xītǔchéng",39.9751609087172,116.347462037813,"heavy_rail",2008
108,"知春路 Zhīchūn Lù",39.9750688107854,116.333285969549,"heavy_rail",2008
109,"知春里 Zhīchūnlǐ",39.9748908147048,116.322755151762,"heavy_rail",2008
110,"海淀黄庄 Hǎidiàn Huángzhuāng",39.9746083967675,116.310454019364,"heavy_rail",2008
111,"苏州街 Sūzhōu Jiē",39.9741737560452,116.299702232264,"heavy_rail",2008
112,"巴沟 Bāgōu",39.9732952055584,116.28899737815,"heavy_rail",2008
113,"双井 Shuāngjǐng",39.8918727447294,116.455111313807,"heavy_rail",2008
114,"劲松 Jìngsōng",39.883048396519,116.45491736588,"heavy_rail",2008
115,"潘家园 Pānjiāyuán",39.8748582689152,116.455017303574,"heavy_rail",2012
116,"十里河 Shílǐhé",39.86412976611,116.451940457391,"heavy_rail",2012
117,"分钟寺 Fēnzhōngsì",39.85128,116.44583582403,"heavy_rail",2012
118,"成寿寺 Chéngshòusì",39.8443840260216,116.439854556426,"heavy_rail",2012
119,"宋家庄 Sòngjiāzhuāng",39.844534441416,116.422135947163,"heavy_rail",2012
120,"石榴庄 Shíliuzhuāng",39.8445724433679,116.407428158319,"heavy_rail",2012
121,"大红门 Dàhóngmén",39.8441332260036,116.392538677353,"heavy_rail",2012
122,"角门东 Jiǎomén Dōng (Jiaomen East)",39.8441118743773,116.379059030096,"heavy_rail",2013
123,"角门西 Jiǎomén Xī (Jiaomen West)",39.8444622528625,116.364816997585,"heavy_rail",2012
124,"草桥 Cǎoqiáo",39.8447676700564,116.345400473493,"heavy_rail",2012
125,"纪家庙 Jǐjiāmiào",39.8431738324989,116.327338580971,"heavy_rail",2012
126,"火器营 Huǒqìyíng",39.964292342506,116.283463424137,"heavy_rail",2012
127,"长春桥 Chángchūn Qiáo",39.9573871460085,116.288039067641,"heavy_rail",2012
128,"车道沟 Chēdàogōu",39.9452404831075,116.287908057213,"heavy_rail",2012
129,"慈寿寺 Císhòusì",39.9322450140704,116.289247647966,"heavy_rail",2012
130,"西钓鱼台 Xīdiàoyútái",39.9218618931806,116.291766454359,"heavy_rail",2012
131,"公主坟 Gōngzhǔfén",39.9070905558503,116.304104425952,"heavy_rail",2012
132,"莲花桥 Liánhuāqiáo",39.895400933446,116.304388765,"heavy_rail",2012
133,"六里桥 Liùlǐqiáo",39.8789197004856,116.296803799924,"heavy_rail",2012
134,"西局 Xījú",39.8643167346792,116.297855556766,"heavy_rail",2012
135,"北京西站 Běijīngxī Zhàn (Beijing West Railway Station)",39.8948078217849,116.314998796498,"heavy_rail",2014
136,"湾子 Wānzǐ",39.8887679890402,116.321259667466,"heavy_rail",2014
137,"达官营 Dáguānyíng",39.8886415214867,116.328662099847,"heavy_rail",2014
138,"广安门内 Guǎng'ānménnèi",39.888090416421,116.355602107047,"heavy_rail",2014
139,"菜市口 Càishìkǒu",39.8880597152852,116.369120265357,"heavy_rail",2014
140,"虎坊桥 Hǔfāngqiáo",39.8881497525355,116.379209934199,"heavy_rail",2014
141,"珠市口 Zhūshìkǒu",39.8897136131858,116.391164165469,"heavy_rail",2014
142,"桥湾 Qiáowān",39.8913047933859,116.402138884228,"heavy_rail",2014
143,"磁器口 Cíqìkǒu",39.8917958392608,116.41367864058,"heavy_rail",2014
144,"广渠门内 Guǎngqúménnèi",39.8922223095517,116.426512028247,"heavy_rail",2014
145,"广渠门外 Guǎngqúmén Wài",39.8923218367082,116.441925843527,"heavy_rail",2014
146,"双井 Shuāngjǐng",39.8922480646585,116.456232909978,"heavy_rail",2019
147,"九龙山 Jiǔlóngshān",39.8920009493946,116.472301377833,"heavy_rail",2014
148,"大郊亭 Dàjiāotíng",39.8919623551242,116.483861190902,"heavy_rail",2014
149,"百子湾 Bǎizǐwān",39.8919133752577,116.491717523763,"heavy_rail",2014
150,"化工 Huàgōng",39.885768941628,116.49694563886,"heavy_rail",2014
151,"南楼梓庄 Nánlóuzǐzhuāng",39.8749886697258,116.495815204428,"heavy_rail",2014
152,"欢乐谷景区 Huānlègǔ Jǐngqū (Happy Valley)",39.8651777584385,116.494106487069,"heavy_rail",2014
153,"垡头 Fátóu",39.8596305340315,116.506133547559,"heavy_rail",2018
154,"双合 Shuānghé",39.858782820055,116.519241165103,"heavy_rail",2014
155,"焦化厂 Jiāohuàchǎng",39.8538804376035,116.528481140103,"heavy_rail",2014
156,"善各庄 Shàngèzhuāng",40.0265722313331,116.472678834627,"heavy_rail",2014
157,"来广营 Láiguǎngyíng",40.0190308517604,116.460955249689,"heavy_rail",2014
158,"东湖渠 Dōnghúqú",40.0087820361496,116.461365150135,"heavy_rail",2014
159,"望京 Wàngjīng",39.9970321907574,116.461854589464,"heavy_rail",2014
160,"阜通 Fùtōng",39.9903219199434,116.46601593832,"heavy_rail",2014
161,"望京南 Wàngjīng Nán (Wangjing South)",39.9836680008952,116.47588526753,"heavy_rail",2014
162,"高家园 Gāojiāyuán",39.9717397891188,116.483566075301,"heavy_rail",2023
163,"将台 Jiāngtái",39.9635291718154,116.481837919966,"heavy_rail",2014
164,"东风北桥 Dōngfēng Běiqiáo",39.9571157799452,116.48066077643,"heavy_rail",2014
165,"枣营 Zǎoyíng",39.9430821876197,116.468705928319,"heavy_rail",2014
166,"朝阳公园 Cháoyáng Gōngyuán (Chaoyang Park)",39.9336233760845,116.472305163668,"heavy_rail",2016
167,"金台路 Jīntái Lù",39.9217398164353,116.472071829884,"heavy_rail",2014
168,"红庙 Hóngmiào",39.9140467962549,116.471899633396,"heavy_rail",2025
169,"大望路 Dàwàng Lù ",39.9064966865471,116.471743799506,"heavy_rail",2015
170,"九龙山 Jiǔlóngshān",39.892628778099,116.471450859298,"heavy_rail",2015
171,"平乐园 Pínglèyuán",39.8838477585417,116.47129387071,"heavy_rail",2017
172,"北工大西门 Běigōngdà Xīmén (Beijing Univ. of Tech. West Gate)",39.8746176504648,116.471143388769,"heavy_rail",2015
173,"十里河 Shílǐhé",39.8643685997905,116.451760343559,"heavy_rail",2015
174,"方庄 Fāngzhuāng",39.8645255390914,116.433013429082,"heavy_rail",2015
175,"蒲黄榆 Púhuángyú",39.8641547995573,116.415989685084,"heavy_rail",2015
176,"景泰 Jǐngtài",39.8638615355004,116.406345294315,"heavy_rail",2015
177,"永定门外 Yǒngdìngménwài",39.8653321311447,116.392971861771,"heavy_rail",2015
178,"陶然桥 Táoránqiáo",39.8693954110936,116.381633964564,"heavy_rail",2023
179,"北京南站 Běijīngnán Zhàn (Beijing South Railway Station)",39.8633667884906,116.370476005587,"heavy_rail",2015
180,"景风门 Jǐngfēngmén",39.860649065663,116.359656195819,"heavy_rail",2021
181,"西铁营 Xītiěyíng",39.86013,116.349438560384,"heavy_rail",2021
182,"菜户营 Càihùyíng",39.8661644579791,116.336967131423,"heavy_rail",2021
183,"丽泽商务区 Lìzé Shāngwùqū (Lize Business District)",39.8662169916322,116.324342034023,"heavy_rail",2021
184,"东管头 Dōngguǎntóu",39.8661255500991,116.315009977896,"heavy_rail",2021
185,"西局 Xījú",39.8652408257323,116.298891688494,"heavy_rail",2013
186,"七里庄 Qīlǐzhuāng",39.8646037341715,116.289233520644,"heavy_rail",2014
187,"大井 Dàjǐng",39.8639025708011,116.271233602723,"heavy_rail",2013
188,"郭庄子 Guōzhuāngzǐ",39.862923693606,116.246975978117,"heavy_rail",2013
189,"大瓦窑 Dàwǎyáo",39.8578574431701,116.234096599172,"heavy_rail",2013
190,"园博园 Yuánbóyuán (Garden Expo Park)",39.8600895022404,116.195618623272,"heavy_rail",2013
191,"张郭庄 Zhāngguōzhuāng",39.8567990686107,116.180878493136,"heavy_rail",2013
192,"北安河 Běi'ānhé",40.0662843994057,116.116898556041,"heavy_rail",2016
193,"温阳路 Wēnyáng Lù",40.0667477582373,116.155356589538,"heavy_rail",2016
194,"稻香湖路 Dàoxiānghú Lù",40.0670635116964,116.182816227684,"heavy_rail",2016
195,"屯佃 Túndiàn",40.0670763005705,116.209906303546,"heavy_rail",2016
196,"永丰 Yǒngfēng",40.0693145817988,116.227369825084,"heavy_rail",2016
197,"永丰南 Yǒngfēng Nán (Yongfeng South)",40.0629073115351,116.24282595072,"heavy_rail",2016
198,"西北旺 Xīběiwàng",40.047977629096,116.251621693849,"heavy_rail",2016
199,"马连洼 Mǎliánwā",40.031629794066,116.266256075988,"heavy_rail",2016
200,"农大南路 Nóngdà Nán Lù (China Agricultural University South Road)",40.0193761687007,116.276838076973,"heavy_rail",2017
201,"西苑 Xīyuàn",39.9980534875353,116.28644506703,"heavy_rail",2016
202,"万泉河桥 Wànquánhé Qiáo",39.9835430832525,116.293192311209,"heavy_rail",2020
203,"苏州街 Sūzhōu Jiē",39.9736642477456,116.3003541126,"heavy_rail",999999
204,"苏州桥 Sūzhōu Qiáo",39.9610824730298,116.30205008543,"heavy_rail",2020
205,"万寿寺 Wànshòu S",39.9473832339673,116.303867493355,"heavy_rail",2020
206,"国家图书馆 Guójiā Túshūguǎn (National Library)",39.9421914794312,116.317384868135,"heavy_rail",2020
207,"白石桥南 Èrlǐgōu",39.9307156012662,116.327879816721,"heavy_rail",2022
208,"甘家口 Gānjiākǒu",39.9208761907331,116.328513009144,"heavy_rail",2020
209,"玉渊潭东门 Yùyuāntán Dōngmén (Yuyuantan Park East Gate)",39.913109979706,116.328210905734,"heavy_rail",2021
210,"木樨地 Mùxīdì",39.9071490355978,116.328225301236,"heavy_rail",2022
211,"达官营 Dáguānyíng",39.8895059063579,116.328105446858,"heavy_rail",2022
212,"红莲南路 Hónglián Nánlù",39.8770767800519,116.327921535065,"heavy_rail",2022
213,"丽泽商务区 Lìzé Shāngwùqū (Lize Business District)",39.8655291654742,116.323147204875,"heavy_rail",2022
214,"东管头南 Dōngguǎntóu Nán (Dōngguǎntóu South)",39.8543818052762,116.318231232508,"heavy_rail",2022
215,"北京丰台站 Běijīng Fēngtái zhàn (Beijing Fengtai Railway Station)",39.84692215982,116.298564621502,"heavy_rail",2022
216,"丰台南路 Fēngtái Nánlù",39.8395853482636,116.29012524366,"heavy_rail",2022
217,"富丰桥 Fùfēngqiáo",39.8348527573099,116.279257992236,"heavy_rail",2022
218,"榆树庄 Yúshùzhuāng",39.837092083823,116.253172042642,"heavy_rail",2022
219,"宛平城 Wǎnpíngchéng",39.8474800337462,116.223532482685,"heavy_rail",2023
220,"肖村 Xiāocūn",39.8328970920346,116.441372580789,"heavy_rail",2010
221,"小红门 Xiǎohóngmén",39.8266658708744,116.453349142225,"heavy_rail",2010
222,"旧宫 Jiùgōng",39.8054249155885,116.454716835908,"heavy_rail",2010
223,"亦庄桥 Yìzhuāngqiáo",39.8017464873151,116.474256972668,"heavy_rail",2010
224,"亦庄文化园 Yìzhuāng Wénhuàyuán (Yizhuang Culture Park)",39.8053400624593,116.483759194695,"heavy_rail",2010
225,"万源街 Wànyuán Jiē",39.8017995989134,116.499507135078,"heavy_rail",2010
226,"荣京东街 Róngjīng Dōngjiē",39.7920647721582,116.507491053053,"heavy_rail",2010
227,"荣昌东街 Róngchāng Dōngjiē",39.7817172839778,116.51585599669,"heavy_rail",2010
228,"同济南路 Tóngjì Nánlù",39.7718622647953,116.534049274548,"heavy_rail",2010
229,"经海路 Jīnghǎi Lù",39.7825055254746,116.55632652964,"heavy_rail",2010
230,"次渠南 Cìqú Nán (Ciqu South)",39.7937546931826,116.575254904261,"heavy_rail",2010
231,"次渠 Cìqú",39.802528642507,116.585602348201,"heavy_rail",2010
232,"亦庄火车站 Yìzhuāng Zhàn (Yizhuang Railway Station)",39.8117568737275,116.596253034731,"heavy_rail",2018
233,"丰台科技园 Fēngtái Kējì Yuán Zhàn",39.8241518050153,116.291125536455,"heavy_rail",2011
234,"科怡路 Kēyílù",39.8309837021069,116.291403930705,"heavy_rail",2011
235,"丰台南路 Fēngtái Nánlù",39.8395975016728,116.290537537511,"heavy_rail",2011
236,"丰台东大街 Fēngtái Dōngdàjiē",39.8503336855747,116.288121012627,"heavy_rail",2012
237,"七里庄 Qīlǐzhuāng",39.8659191481701,116.288300664134,"heavy_rail",2011
238,"六里桥 Liùlǐqiáo",39.8789355616916,116.297202079073,"heavy_rail",2011
239,"六里桥东 Liùlǐqiáo Dōng (Liuliqiao East)",39.8856894978889,116.308817556078,"heavy_rail",2011
240,"北京西站 Běijīngxī Zhàn (Beijing West Railway Station)",39.8948066692078,116.314868661431,"heavy_rail",2011
241,"军事博物馆 Jūnshì Bówùguǎn (Military Museum)",39.9068215463916,116.315163436659,"heavy_rail",2013
242,"白堆子 Báiduīzǐ",39.9229755671668,116.319629331569,"heavy_rail",2012
243,"白石桥南 Báishíqiáo Nán (Baishiqiao South)",39.9316000060995,116.319337677809,"heavy_rail",2012
244,"国家图书馆 Guójiā Túshūguǎn (National Library)",39.9436557363577,116.318662446338,"heavy_rail",2012
245,"郭公庄 Guōgōngzhuāng",39.8123890548076,116.299622995427,"heavy_rail",2011
246,"物资学院路 Wùzī Xuéyuàn Lù",39.9259206675684,116.633265237573,"heavy_rail",2014
247,"通州北关 Tōngzhōu Běiguān",39.9180959781272,116.65637984528,"heavy_rail",2014
248,"通运门 Tōngyùnmén",39.9092091388863,116.668016477439,"heavy_rail",2024
249,"北运河西 Běiyùnhé Xī (Beiyunhe West)",39.9018493096511,116.681916864335,"heavy_rail",2014
250,"北运河东 Běiyùnhé Dōng (Beiyunhe East)",39.9011094120339,116.701659885419,"heavy_rail",2018
251,"郝家府 Hǎojiāfǔ",39.9021020796708,116.711230562032,"heavy_rail",2014
252,"东夏园 Dōngxiàyuán",39.9022380196928,116.727471247167,"heavy_rail",2014
253,"潞城 Lùchéng",39.9015756504766,116.741881687457,"heavy_rail",2014
254,"宋家庄 Sòngjiāzhuāng",39.8447405505235,116.422279188832,"heavy_rail",2010
255,"郭公庄 Guōgōngzhuāng",39.8123868245402,116.299464752987,"heavy_rail",2011
256,"大葆台 Dàbǎotái",39.8065081030863,116.285614475626,"heavy_rail",2010
257,"稻田 Dàotián",39.7937301688688,116.213110782504,"heavy_rail",2010
258,"长阳 Chángyáng",39.7625878893733,116.206331636314,"heavy_rail",2010
259,"篱笆房 Líbāfáng",39.7594144494081,116.183392915883,"heavy_rail",2010
260,"广阳城 Guǎngyángchéng",39.746631955397,116.178740518181,"heavy_rail",2010
261,"良乡大学城北 Liángxiāng Dàxuéchéng Běi",39.7284829303375,116.177457996451,"heavy_rail",2010
262,"良乡大学城 Liángxiāng Dàxuéchéng",39.7219459349738,116.170022190896,"heavy_rail",2010
263,"良乡大学城西 Liángxiāng Dàxuéchéng Xī",39.7218562660686,116.150065101687,"heavy_rail",2010
264,"良乡南关 Liángxiāng Nánguān",39.7218094865677,116.134491998979,"heavy_rail",2010
265,"苏庄 Sūzhuāng",39.7218705768047,116.11888,"heavy_rail",2010
266,"西二旗 Xī'èrqí",40.0516718931638,116.300391311892,"heavy_rail",2002
267,"生命科学园 Shēngmìng Kēxué Yuán",40.0935857396545,116.288232341424,"heavy_rail",2010
268,"朱辛庄 Zhūxīnzhuāng",40.1030231934183,116.307660603283,"heavy_rail",2010
269,"巩华城 Gǒnghuáchéng",40.1296523983558,116.287904797541,"heavy_rail",2010
270,"沙河 Shāhé",40.14701,116.282900651059,"heavy_rail",2010
271,"沙河高教园 Shāhé Gāojiāoyuán",40.1634668029501,116.274339402595,"heavy_rail",2010
272,"南邵 Nánshào",40.2108922385904,116.281949107006,"heavy_rail",2010
273,"复兴门 Fùxīngmén",39.9056884620407,116.352838154935,"heavy_rail",1987
274,"西单 Xīdān",39.9055399745529,116.367912437193,"heavy_rail",1992
275,"王府井 Wángfǔjǐng",39.90666,116.405762629369,"heavy_rail",1999
276,"天安门西 Tiān'ānmén Xī (Tian'anmen West)",39.9058914231634,116.383763296409,"heavy_rail",1999
277,"天安门东 Tiān'ānmén Dōng (Tian'anmen East)",39.9064250825058,116.398162991895,"heavy_rail",1999
278,"东单 Dōngdān",39.9068887574601,116.412197557318,"heavy_rail",1999
279,"建国门 Jiànguómén",39.9071013434118,116.427704741261,"heavy_rail",1999
280,"永安里 Yǒng'ānlǐ",39.9071541549986,116.444064974339,"heavy_rail",1999
281,"国贸 Guómào",39.907077803979,116.454184688278,"heavy_rail",1999
282,"大望路 Dàwàng Lù ",39.9070054539759,116.471454609723,"heavy_rail",1999
283,"四惠 Sìhuì",39.9072839350577,116.4894586736,"heavy_rail",1999
284,"四惠东 Sìhuì Dōng (Sihui East)",39.9070627731526,116.509355039242,"heavy_rail",1999
285,"四惠 Sìhuì",39.9076410390953,116.489405816876,"default",2003
286,"四惠东 Sìhuì Dōng (Sihui East)",39.9073335310504,116.509384758843,"default",2003
287,"复兴门 Fùxīngmén",39.9064580715505,116.35069635211,"heavy_rail",1984
288,"车公庄 Chēgōngzhuāng",39.9312493561338,116.349633910132,"heavy_rail",1984
289,"阜成门 Fùchéngmén",39.9222882658696,116.350093890325,"heavy_rail",1984
290,"西直门 Xīzhímén",39.939899657872,116.347202805503,"heavy_rail",2002
291,"鼓楼大街 Gǔlóu Dàjiē",39.9477109262151,116.388232415198,"heavy_rail",1984
292,"鼓楼大街 Gǔlóu Dàjiē",39.9483380964587,116.389082784352,"heavy_rail",2012
293,"安定门 Āndìngmén",39.947763144881,116.402003826861,"heavy_rail",1984
294,"雍和宫 Yōnghégōng (Lama Temple)",39.9480373248589,116.410376899572,"heavy_rail",1984
295,"东直门 Dōngzhímén",39.940192356071,116.427383695532,"heavy_rail",1984
296,"东直门 Dōngzhímén",39.9404889094964,116.427754179471,"heavy_rail",2008
297,"东直门 Dōngzhímén",39.9407147288654,116.428153899032,"heavy_rail",2003
298,"东四十条 Dōngsì Shítiáo",39.932298392906,116.42787716406,"heavy_rail",1984
299,"朝阳门 Cháoyángmén",39.923286733081,116.428329840323,"heavy_rail",1984
300,"建国门 Jiànguómén",39.9080208876157,116.429,"heavy_rail",1984
301,"北京站 Běijīngzhàn (Beijing Railway Station)",39.9035820872991,116.42120178604,"heavy_rail",1987
302,"崇文门 Chóngwénmén",39.8999184115688,116.413313006741,"heavy_rail",1987
303,"前门 Qiánmén",39.8987411146269,116.393235465344,"heavy_rail",1987
304,"和平门 Hépíngmén",39.8986579345143,116.377976073981,"heavy_rail",1987
305,"宣武门 Xuānwǔmén",39.8983948962439,116.368004126683,"heavy_rail",1987
306,"长椿街 Chángchūn Jiē",39.8981043770287,116.357232358875,"heavy_rail",1987
307,"立水桥 Lìshuǐqiáo",40.0515141826516,116.404653715163,"heavy_rail",2003
308,"大屯路东 Dàtúnlù Dōng (Datunlu East)",40.00147,116.410703570829,"heavy_rail",2015
309,"金安桥 Jīn'ānqiáo",39.9222588938515,116.157070404801,"heavy_rail",2017
310,"苹果园 Píngguǒyuán",39.924660657951,116.172739571035,"heavy_rail",2018
311,"杨庄 Yáng Zhuāng",39.9264857485812,116.180025694443,"heavy_rail",2018
312,"西黄村 Xīhuáng Cūn",39.9323247602203,116.197238685738,"heavy_rail",2018
313,"廖公庄 Liàogōng Zhuāng",39.9319961673957,116.213129398299,"heavy_rail",2018
314,"田村 Tián Cūn",39.9282707825077,116.241645070853,"heavy_rail",2018
315,"南锣鼓巷 Nánluógǔ Xiàng",39.9318280839603,116.396332682348,"heavy_rail",2013
316,"珠市口 Zhūshìkǒu",39.8897891938178,116.39168989477,"heavy_rail",2018
317,"黄厂 Huángchǎng",39.8477267741717,116.548625852557,"heavy_rail",2019
318,"郎辛庄 Lángxīnzhuāng",39.8557291530693,116.564990568153,"heavy_rail",2019
319,"黑庄户 Hēi Zhuānghù",39.8575774032628,116.594761353096,"heavy_rail",2019
320,"万盛西 Wànshèng Xī (Wansheng West)",39.8620488707046,116.626423560276,"heavy_rail",2019
321,"万盛东 Wànshèng Dōng (Wansheng East)",39.8621001286742,116.651573185132,"heavy_rail",2019
322,"群芳 Qúnfāng",39.8620046742363,116.66368791647,"heavy_rail",2019
323,"高楼金 Gāolóujīn",39.8615925099043,116.679499238051,"heavy_rail",2019
324,"环球度假区 Huánqiú Dùjiàqū (Universal Resort)",39.8473068016013,116.669947006405,"heavy_rail",2021
325,"花庄 Huāzhuāng",39.8563102775709,116.689705057543,"heavy_rail",2019
326,"朱辛庄 Zhūxīnzhuāng",40.102977174552,116.307363693925,"heavy_rail",2013
327,"育知路 Yùzhī Lù",40.08655,116.320704983025,"heavy_rail",2013
328,"平西府 Píngxīfǔ",40.0882570194027,116.347186614426,"heavy_rail",2013
329,"回龙观东大街 Huílóngguàn Dōngdàjiē",40.0797052388254,116.356781789197,"heavy_rail",2011
330,"霍营 Huòyíng",40.0710217539668,116.35337836529,"heavy_rail",2011
331,"霍营 Huòyíng",40.0690160286023,116.354684372558,"heavy_rail",2002
332,"育新 Yùxīn",40.0583612354106,116.341156735063,"heavy_rail",2011
333,"西小口 Xīxiǎokǒu",40.0461334850437,116.345110700931,"heavy_rail",2011
334,"永泰庄 Yǒngtàizhuāng",40.0368651803868,116.348275954052,"heavy_rail",2011
335,"林萃桥 Líncuìqiáo",40.0207386809547,116.366917328788,"heavy_rail",2011
336,"森林公园南门  Sēnlín Gōngyuán Nánmén (Forest Park South Gate)",40.0083354916967,116.38617878458,"heavy_rail",2008
337,"奥林匹克公园 Àolínpǐkè Gōngyuán (Olympic Park)",40.0005930017265,116.38661275386,"heavy_rail",2008
338,"奥林匹克公园 Àolínpǐkè Gōngyuán (Olympic Park)",40.0006739318562,116.386422587899,"heavy_rail",2014
339,"奥体中心 Àotǐ Zhōngxīn (Olympic Sports Center)",39.9841298182862,116.387563581488,"heavy_rail",2008
340,"北土城 Běitǔchéng",39.975569236617,116.38788007587,"heavy_rail",2008
341,"安华桥 Ānhuá Qiáo",39.9673837202883,116.388244858426,"heavy_rail",2012
342,"安德里北街 Āndélǐ Běijiē",39.9555626974311,116.38875643057,"heavy_rail",2012
343,"什刹海 Shíchàhǎi",39.935359979968,116.389811967106,"heavy_rail",2013
344,"中国美术馆 Zhōngguó Měishùguǎn (National Art Museum)",39.9236583286946,116.404638826533,"heavy_rail",2018
345,"天桥 Tiān Qiáo",39.875650375743,116.392628114711,"heavy_rail",2018
346,"永定门外 Yǒngdìngménwài",39.8653517592384,116.393339524985,"heavy_rail",2018
347,"木樨园 Mùxīyuán",39.8581720620466,116.393692968425,"heavy_rail",2018
348,"海户屯 Hǎihù Tún",39.8491061497688,116.394149198128,"heavy_rail",2018
349,"大红门 Dàhóngmén",39.8444652793259,116.394347988407,"heavy_rail",2023
350,"大红门南 Dàhóngmén Nán (Dahongmen South)",39.8341467904422,116.394857857185,"heavy_rail",2018
351,"和义 Héyì",39.8135370335653,116.395859188467,"heavy_rail",2018
352,"东高地 Dōnggāo Dì",39.8038520938009,116.402999071536,"heavy_rail",2018
353,"火箭万源 Huǒjiàn Wànyuán",39.7983193060981,116.412421355603,"heavy_rail",2018
354,"五福堂 Wǔfú Táng",39.7832325783436,116.418643801423,"heavy_rail",2018
355,"德茂 Démào",39.7716173480207,116.434721281016,"heavy_rail",2018
356,"瀛海 Yínghǎi",39.7561637176268,116.44440971625,"heavy_rail",2018
357,"北京丰台站 Běijīng Fēngtái zhàn (Beijing Fengtai Railway Station)",39.8485932701984,116.298738885866,"heavy_rail",2013
358,"泥洼 Níwā",39.8574262887471,116.298204002831,"heavy_rail",2013
359,"首经贸 Shǒujīngmào (Capital University of Economics & Business)",39.8431685283648,116.313650742368,"heavy_rail",2012
360,"三元桥 Sānyuán Qiáo",39.9582183262921,116.44977927301,"heavy_rail",2008
361,"芍药居 Sháoyàojū",39.9762788421052,116.42986,"heavy_rail",2003
362,"知春路 Zhīchūn Lù",39.9757934315902,116.334021013982,"heavy_rail",2002
363,"巴沟 Bāgōu",39.973479361013,116.288968442771,"light_rail",2017
364,"大钟寺 Dàzhōng Sì",39.9653475855051,116.339074832126,"heavy_rail",2002
365,"五道口 Wǔdàokǒu",39.9915880055619,116.331904904145,"heavy_rail",2002
366,"上地 Shàngdì",40.0317155970057,116.314242527468,"heavy_rail",2002
367,"清河站 Qīnghé zhàn (Qinghe railway station)",40.0394127505614,116.309402119424,"heavy_rail",2019
368,"龙泽 Lóngzé",40.0695504557637,116.313263300831,"heavy_rail",2002
369,"回龙观 Huílóngguàn",40.0693390572233,116.329786295614,"heavy_rail",2002
370,"北苑 Běiyuàn",40.0415802262782,116.428222786379,"heavy_rail",2003
371,"望京西 Wàngjīng Xī (Wangjing West)",39.9936222882997,116.441300318283,"heavy_rail",2003
372,"望京西 Wàngjīng Xī (Wangjing West)",39.994439554331,116.443619474348,"heavy_rail",2010
373,"光熙门 Guāngxī Mén",39.9669149249504,116.425318386809,"heavy_rail",2003
374,"柳芳 Liǔfāng",39.9567911766079,116.426087337917,"heavy_rail",2003
375,"望京 Wàngjīng",39.9960090814787,116.461604268028,"heavy_rail",2010
376,"清华东路西口 Qīnghuá Dōnglù Xīkǒu",39.9993294005806,116.331771174226,"heavy_rail",2014
377,"清华东路西口 Qīnghuá Dōnglù Xīkǒu",39.9983440085142,116.331496628321,"heavy_rail",999999
378,"六道口 Liùdàokǒu",39.9996655150981,116.346592182819,"heavy_rail",2014
379,"北沙滩 Běishātān",40.0000387277866,116.363171771865,"heavy_rail",2014
380,"安立路 Ānlì Lù",40.0010765419859,116.400943402518,"heavy_rail",2014
381,"关庄 Guānzhuāng",39.9994410755659,116.425281348079,"heavy_rail",2014
382,"望京东 Wàngjīng Dōng (Wangjing East)",40.0022792886238,116.482251208727,"heavy_rail",2016
383,"崔各庄 Cuīgèzhuāng",40.0205825096867,116.487675575236,"heavy_rail",2010
384,"马泉营 Mǎquányíng",40.0324074977169,116.498185038386,"heavy_rail",2010
385,"孙河 Sūnhé",40.043985516805,116.529181646348,"heavy_rail",2010
386,"国展 Guózhǎn (China International Exhibition Center)",40.0688858674232,116.549274082034,"heavy_rail",2010
387,"花梨坎 Huālíkǎn",40.0833659690163,116.551885674007,"heavy_rail",2010
388,"后沙峪 Hòushāyù",40.1129386328178,116.558392658714,"heavy_rail",2010
389,"南法信 Nánfǎxìn",40.1273988136641,116.60366,"heavy_rail",2011
390,"石门 Shímén",40.1286572760814,116.635167132188,"heavy_rail",2011
391,"顺义 Shùnyì",40.1288039674077,116.651360456701,"heavy_rail",2011
392,"俸伯 Fèngbó",40.1313519406721,116.683465951368,"heavy_rail",2011
393,"高碑店 Gāobēidiàn",39.9083311881745,116.522457120606,"default",2003
394,"传媒大学 Chuánméi Dàxué (Communication University of China)",39.9081642744685,116.549704014608,"default",2003
395,"双桥 Shuāngqiáo",39.9091832872353,116.572305446991,"default",2003
396,"管庄 Guǎnzhuāng",39.9080613217458,116.592629346631,"default",2003
397,"八里桥 Bālǐqiáo",39.9050646777283,116.6128,"default",2003
398,"通州北苑 Tōngzhōu Běiyuàn",39.9024224030339,116.631647470105,"default",2003
399,"果园 Guǒyuán",39.8928721370228,116.638776196047,"default",2003
400,"九棵树 Jiǔkēshù",39.8891120912387,116.65193,"default",2003
401,"梨园 Líyuán",39.8824715562439,116.662851157645,"default",2003
402,"临河里 Línhélǐ",39.8740110590904,116.673300029338,"default",2003
403,"土桥 Tǔqiáo",39.8704399120786,116.681101928243,"default",2003
404,"花庄 Huāzhuāng",39.8561468521166,116.689858009655,"default",2019
405,"环球度假区 Huánqiú Dùjiàqū (Universal Resort)",39.8470670172984,116.66986994101,"default",2021
406,"北邵洼 Běishàowā",40.2204670035536,116.276595534841,"heavy_rail",2015
407,"昌平东关Chāngpíng Dōngguān",40.2204678795905,116.25667016536,"heavy_rail",2015
408,"昌平 Chāngpíng",40.2192883640843,116.227254268779,"heavy_rail",2015
409,"十三陵景区 Shísānlíng Jǐngqū (Ming Tombs)",40.2386430871783,116.20400103691,"heavy_rail",2015
410,"昌平西山口 Chāngpíng Xīshānkǒu",40.2433299889714,116.189196977665,"heavy_rail",2015
411,"阎村东 Yáncūn Dōng (Yancun East)",39.7275646262874,116.094552157662,"heavy_rail",2017
412,"紫草坞 Zǐcǎowù",39.7231403227231,116.080404633367,"heavy_rail",2017
413,"阎村 Yáncūn",39.7151898176799,116.073858942895,"heavy_rail",2017
414,"星城 Xīngchéng",39.7121910591328,116.055092186233,"heavy_rail",2017
415,"大石河东 Dàshíhé Dōng (Dashihe East)",39.7084783192715,116.033799797559,"heavy_rail",2017
416,"马各庄 Mǎgèzhuāng",39.7037006003173,116.010317085001,"heavy_rail",2017
417,"饶乐府 Ráolèfǔ",39.7000769364827,115.999938807913,"heavy_rail",2017
418,"房山城关 Fángshān Chéngguān",39.7045890143366,115.983705892914,"heavy_rail",2017
419,"燕山 Yānshān",39.718588181869,115.967207287464,"heavy_rail",2017
420,"北京站 Běijīngzhàn (Beijing Railway Station)",39.9034992523325,116.421229491817,"heavy_rail",1971
421,"崇文门 Chóngwénmén",39.8998012560793,116.413351881881,"heavy_rail",1971
422,"前门 Qiánmén",39.8986594901553,116.393260950646,"heavy_rail",1971
423,"和平门 Hépíngmén",39.8985949768584,116.377994016981,,1971
424,"宣武门 Xuānwǔmén",39.8983243826905,116.367999894982,"heavy_rail",1971
425,"长椿街 Chángchūn Jiē",39.8980098758895,116.357228563468,"heavy_rail",1971
426,"3号航站楼 3 Hào Hángzhànlóu (Terminal 3)",40.052289419408,116.609614363416,"heavy_rail",2008
427,"2号航站楼 2 Hào Hángzhànlóu (Terminal 2)",40.0781511540664,116.587169769194,"heavy_rail",2008
428,"西二旗 Xī'èrqí",40.0516502817442,116.300066950348,"heavy_rail",2010
429,"四道桥 Sìdàoqiáo",39.9145742186371,116.127747345941,"heavy_rail",2017
430,"桥户营 Qiáohùyíng",39.9108654761606,116.119568959407,,2017
431,"上岸 Shàng'àn",39.9036241936191,116.115980608336,"heavy_rail",2017
432,"栗园庄 Lìyuánzhuāng",39.8942073585937,116.11701406572,"heavy_rail",2017
433,"小园 Xiǎoyuán",39.8889522586108,116.108167999785,"heavy_rail",2017
434,"石厂 Shíchǎng",39.8879097521448,116.094069551771,"heavy_rail",2017
435,"Summer Palace West Gate",39.9844599185161,116.257241442837,"light_rail",2017
436,"Chapeng",39.9808978824408,116.242044067986,"light_rail",2017
437,"Wan'an",39.9827579082085,116.225962303955,"light_rail",2017
438,"Botanical Garden",39.9922701969216,116.209699163252,"light_rail",2017
439,"Xiangshan",39.9927697068139,116.198329045203,"light_rail",2017
440,"金安桥 Jīn'ānqiáo",39.9232129338566,116.157017198371,"heavy_rail",2018
441,"Dinghaiyuan",39.8000501802149,116.556391947541,"tram",2020
442,"Dinghaiyuan West",39.7953527127696,116.546701078399,"tram",2020
443,"Jinghaiyilu",39.7896982508174,116.534993453669,"tram",2020
444,"Beijing Etrong International Exhibition & Convention Center",39.7831361181766,116.521454674908,"tram",2020
445,"荣昌东街 Róngchāng Dōngjiē",39.7803557838096,116.515662040655,"tram",2020
446,"Yizhuangtongren",39.7757549250214,116.512383320246,"tram",2020
447,"Lujuan East",39.7651903465165,116.508039068601,"tram",2020
448,"Taihelu",39.758878622155,116.505370961446,"tram",2020
449,"Jiuhaocun (Benchi North))",39.7537701779833,116.502795533798,"tram",2020
450,"Sihaizhuang",39.7454387333255,116.498669644481,"tram",2020
451,"Taiheqiao North",39.739885528333,116.495883188553,"tram",2020
452,"Ruihezhuang",39.7285167040332,116.497486182159,"tram",2020
453,"Rongxingjie",39.7214388240441,116.499273249463,"tram",2020
454,"Quzhuang (Benchi South)",39.7145300347193,116.501020189456,"tram",2020
455,"首经贸 Shǒujīngmào (Capital University of Economics & Business)",39.8428378391713,116.313896195177,"heavy_rail",2020
456,"东管头南 Dōngguǎntóu Nán (Dongguantou South)",39.8543598533586,116.318390122804,"heavy_rail",2020
457,"大兴机场 Dàxīng Jīchǎng (Daxing Airport)",39.5123013928763,116.410728031565,"heavy_rail",2019
458,"草桥 Cǎoqiáo",39.8465520484496,116.341691995758,"heavy_rail",2019
459,"大兴新城 Dàxīng Xīnchéng",39.7330530658751,116.35982733334,"heavy_rail",2019
460,"Fushouling",39.9384888946396,116.16455741262,"heavy_rail",999999
461,"金鱼胡同 Jīnyú Hútòng",39.9142728361111,116.404974484686,"heavy_rail",2021
462,"王府井 Wángfǔjǐng",39.907810889099,116.40518,"heavy_rail",2021
463,"前门 Qiánmén",39.8985133252076,116.393401760462,"heavy_rail",2021
464,"Moshikou",39.9323150069326,116.149729998226,"heavy_rail",999999
465,"金安桥 Jīn'ānqiáo",39.9210061580358,116.155241677423,"heavy_rail",2021
466,"北辛安 Běixīn'ān",39.9135534054893,116.158611681002,"heavy_rail",2021
467,"新首钢 Xīnshǒugāng (Shougang Park)",39.9083255793536,116.158650569002,"heavy_rail",2021
468,"看丹 Kāndān",39.8337625696856,116.26655850792,"heavy_rail",2022
469,"洪泰庄 Hóngtàizhuāng",39.8470455309763,116.242981905254,"heavy_rail",2023
470,"牡丹园 Mǔdānyuán",39.9760656576125,116.363723446262,"heavy_rail",2021
471,"北太平庄 Běitàipíngzhuāng",39.9672081967265,116.363907796245,"heavy_rail",2022
472,"积水潭 Jīshuǐtán",39.9460945062903,116.365701633238,"heavy_rail",2021
473,"平安里 Ping'anli",39.9322122994083,116.366558367936,"heavy_rail",999999
474,"太平桥 Tàipíngqiáo",39.90763,116.357069471242,"heavy_rail",2022
475,"牛街 Niújiē",39.8899775955732,116.357339775289,"heavy_rail",2021
476,"景风门 Jǐngfēngmén",39.861457190884,116.358151808159,"heavy_rail",999999
477,"新发地 Xīnfādì",39.8216395989884,116.340088651529,"heavy_rail",2021
478,"新宫 Xīngōng",39.8110503943984,116.361722072028,"heavy_rail",2021
479,"草桥 Cǎoqiáo",39.8464408420099,116.342122207059,"heavy_rail",2021
480,"苹果园 Píngguǒyuán",39.9239912831616,116.17320629814,"heavy_rail",2021
481,"北新桥 Běixīnqiáo",39.9397129550842,116.410990790594,"heavy_rail",999999
482,"四季青桥 Sìjìqīng Qiáo",39.9426172151327,116.267336769197,"heavy_rail",2024
483,"蓝靛厂 Lándiànchǎng",39.9558604118462,116.276832434653,"heavy_rail",2024
484,"长春桥 Chángchūn Qiáo",39.9569499750206,116.287721513455,"heavy_rail",2024
485,"苏州桥 Sūzhōu Qiáo",39.9607008216035,116.301525866572,"heavy_rail",2024
486,"人民大学 Rénmín Dàxué (Renmin University)",39.9654932103645,116.314660257456,"heavy_rail",2024
487,"大钟寺 Dàzhōng Sì",39.9662548742931,116.338390014134,"heavy_rail",2024
488,"蓟门桥 Jìmén Qiáo",39.9663383048569,116.349180176791,"heavy_rail",2024
489,"北太平庄 Běitàipíngzhuāng",39.9664967656679,116.363465342378,"heavy_rail",2024
490,"马甸桥 Madian Qiao",39.9668012953597,116.375487520948,"heavy_rail",2024
491,"安华桥 Ānhuá Qiáo",39.9670924927178,116.387944705834,"heavy_rail",2024
492,"安贞桥 Ānzhēn Qiáo",39.9673340042588,116.395782222401,"heavy_rail",2024
493,"和平西桥 Hépíng Xīqiáo",39.9677375144963,116.411433322052,"heavy_rail",2024
494,"光熙门 Guāngxī Mén",39.9681183848613,116.424869900132,"heavy_rail",2024
495,"西坝河 Xībàhé",39.964346835297,116.436186926609,"heavy_rail",2024
496,"三元桥 Sānyuán Qiáo",39.9583523108276,116.449529424566,"heavy_rail",2024
497,"将台西 Jiàngtáixī",39.9709091444185,116.47292739478,"heavy_rail",2024
498,"高家园 Gāojiāyuán",39.9706107708727,116.483046573182,"heavy_rail",2024
499,"驼房营 Tuófángyíng",39.9792458556713,116.49943679893,"heavy_rail",2024
500,"东坝西 Dōngbà Xī",39.9733163468441,116.528337620494,"heavy_rail",2024
501,"东坝北 Dōngbà Běi",39.9744812135049,116.551284241601,"heavy_rail",2024
502,"清河站 Qīnghé zhàn (Qinghe railway station)",40.0391970182388,116.309001926317,"heavy_rail",2021
503,"朱房北 Zhūfángběi",40.0346305174338,116.325769326764,"heavy_rail",2023
504,"清河小营桥 Qīnghé Xiǎoyíngqiáo",40.0331090265625,116.337516181687,"heavy_rail",2023
505,"学知园 Xuézhīyuán",40.0156208088626,116.345629002067,"heavy_rail",2023
506,"六道口 Liùdàokǒu",40.0004820107772,116.346211721132,"heavy_rail",2023
507,"学院桥 Xuéyuànqiáo",39.9860227217132,116.346858867396,"heavy_rail",2023
508,"西土城 Xītǔchéng",39.9757867788855,116.347859340462,"heavy_rail",2023
509,"蓟门桥 Jìmén Qiáo",39.9667080292114,116.347914561898,"heavy_rail",2023
510,"丽泽商务区 Lìzé Shāngwùqū (Lize Business District)",39.8657532890035,116.323824704076,"heavy_rail",2022
511,"东四十条 Dōngsì Shítiáo",39.9322981263344,116.428411625529,"heavy_rail",2024
512,"工人体育场 Gōngrén Tǐyùchǎng (Workers' Stadium)",39.9323730705786,116.44346215963,"heavy_rail",2024
513,"团结湖 Tuánjiéhú",39.9324339364475,116.454974242414,"heavy_rail",2024
514,"朝阳公园 Cháoyáng Gōngyuán (Chaoyang Park)",39.9324328730999,116.471767504453,"heavy_rail",2024
515,"石佛营 Shífóyíng",39.9343581862494,116.492653179819,"heavy_rail",2024
516,"北京朝阳 Běijīng Cháoyáng zhàn (Beijing Chaoyang Railway Station)",39.9431885705107,116.500942093252,"heavy_rail",2024
517,"姚家园 Yáojiāyuán",39.9466243236614,116.521287534362,"heavy_rail",2024
518,"东坝南 Dōngbà Nán",39.9511624145888,116.541123247401,"heavy_rail",2024
519,"东坝 Dōngbà",39.9661712252546,116.541058078714,"heavy_rail",2024
520,"东坝北 Dōngbà Běi",39.9742199307281,116.551315398754,"heavy_rail",2024
521,"嘉会湖 Jiāhuìhú",39.7918665738191,116.606193403495,"heavy_rail",2021
522,"次渠 Cìqú",39.8021781623224,116.586315277801,"heavy_rail",2021
523,"次渠北 Cìqú Běi (Ciqu North)",39.8086551879434,116.57031947406,"heavy_rail",2021
524,"北神树 Běishénshù",39.8175917317649,116.546914655652,"heavy_rail",2021
525,"十八里店 Shíbālǐdiàn",39.8432317587381,116.489652066632,"heavy_rail",2021
526,"周家庄 Zhōujiāzhuāng",39.8548503163601,116.470980918192,"heavy_rail",2021
527,"十里河 Shílǐhé",39.8630200859109,116.455007785496,"heavy_rail",2018
528,"潘家园西 Pānjiāyuán Xī",39.8747583157149,116.444664533934,"heavy_rail",999999
529,"广渠门外 Guǎngqúmén Wài",39.8882532366618,116.444714671891,"heavy_rail",999999
530,"永安里 Yǒng'ānlǐ",39.9087127553659,116.444156869027,"heavy_rail",999999
531,"东大桥 Dōngdàqiáo",39.922888466724,116.444237038527,"heavy_rail",999999
532,"工人体育场 Gōngrén Tǐyùchǎng (Workers' Stadium)",39.9334795478918,116.444138651069,"heavy_rail",2023
533,"左家庄 Zuǒjiāzhuāng",39.9486420316346,116.435423971062,"heavy_rail",2023
534,"西坝河 Xībàhé",39.9638945614839,116.433405183436,"heavy_rail",2023
535,"太阳宫 Tàiyanggōng",39.9726743135191,116.44230554803,"heavy_rail",2023
536,"望京西 Wàngjīng Xī (Wangjing West)",39.9923183562347,116.441344838997,"heavy_rail",2023
537,"红军营 Hóngjūnyíng",40.0331343415391,116.435454299619,"heavy_rail",2023
538,"清河营 Qīnghéyíng",40.0500566912453,116.435987808842,"heavy_rail",2023
539,"天通苑东 Tiāntōngyuàn Dōng",40.0678611416871,116.435967239374,"heavy_rail",2023
540,"未来科学城 Wèilái Kēxuéchéng (Future Science Coty)",40.1146580591354,116.460584602365,"heavy_rail",2022
541,"未来科学城北 Wèilái Kēxuéchéng Běi (Future Science City North)",40.1292162089015,116.462755695717,"heavy_rail",2023
542,"Liangxiang",39.7386346830127,116.150412496593,"commuter_rail",2020
543,"北京西站 Běijīngxī Zhàn (Beijing West Railway Station)",39.8940939715154,116.315839667397,,2017
544,"Beijing",39.9009419394127,116.421188475265,"commuter_rail",2017
545,"Beijing East",39.9011387432858,116.477577169212,"commuter_rail",2017
546,"Tongzhou",39.8959311231517,116.656778471345,"commuter_rail",2017
547,"Qiaozhuangdong",39.8935586337256,116.690333454065,"commuter_rail",2020
548,"Tongzhouxi",39.9022800769197,116.619695063604,"commuter_rail",2020
549,"Shunyi",40.1259932907481,116.639009986089,"commuter_rail",2020
550,"Niulanshan",40.2021411584721,116.641892112864,"commuter_rail",2020
551,"Huairou",40.3158113030377,116.643346305488,"commuter_rail",2020
552,"Miyun North",40.3959872194009,116.856497198358,"commuter_rail",2020
553,"Yanqihu",40.3731762878397,116.653571948406,"commuter_rail",2020
554,"Huairoubei",40.4071075973805,116.687127682207,"commuter_rail",2020
555,"Heishansi",40.4894713434912,116.789593931532,"commuter_rail",2020
556,"Gubeikou",40.5709766883929,116.929513010221,"commuter_rail",2020
557,"Shacheng",40.3954294533574,115.511324204528,"commuter_rail",2008
558,"Kangzhuang",40.3781681243551,115.889841591018,"commuter_rail",2008
559,"Badaling",40.3602653581445,115.993397099119,"commuter_rail",2008
560,"Nankou",40.2383223956097,116.122875294957,"commuter_rail",2008
561,"Huangtudian",40.0686564232237,116.358071263957,"commuter_rail",2016
562,"Changping",40.1890077477217,116.187261854074,"commuter_rail",
563,"立水桥 Lìshuǐqiáo",40.0511449205933,116.404747487129,"commuter_rail",2022
564,"北苑 Běiyuàn",40.0414172212838,116.427962217316,"commuter_rail",2022
565,"Wangjing",40.0210472670114,116.47049295618,"commuter_rail",2022
566,"驼房营 Tuófángyíng",39.9802534630527,116.503057747315,"commuter_rail",2022
567,"Beijing Chaoyang",39.9432068773053,116.50162729158,"commuter_rail",2022
568,"Beijing North",39.9414411149267,116.347786611565,"commuter_rail",2020
569,"清河站 Qīnghé zhàn (Qinghe railway station)",40.0396924122475,116.309835297125,"commuter_rail",2020
570,"Changpingbei",40.2304631356693,116.224661735837,"commuter_rail",2020
571,"花乡东桥 Huāxiāng Dōngqiáo",39.8284467451842,116.313649172197,"heavy_rail",2020
572,"白盆窑 Báipényáo",39.8184948231251,116.307066960007,"heavy_rail",2020
573,"潞阳LuYang",39.8896816470759,116.750925428621,"heavy_rail",2025
