"nodeID","nodeLabel","latitude","longitude","mode","year"
1,"九龍塘 Kowloon Tong",22.3370053130897,114.17587619539,"commuter_rail|inter_city_rail",1982
2,"大圍 Tai Wai",22.373107843506,114.178544207859,"commuter_rail|inter_city_rail",1982
3,"沙田 Sha Tin",22.3826361242243,114.187577255634,"commuter_rail|inter_city_rail",1910
4,"火炭 Fo Tan",22.3953711394117,114.198272258013,"commuter_rail|inter_city_rail",1985
5,"Racecourse",22.4005416747581,114.202947885529,"commuter_rail|inter_city_rail",1978
6,"大學 University",22.4134147590023,114.210075914851,"commuter_rail|inter_city_rail",1966
7,"大埔墟 Tai Po Market",22.4446105559739,114.170652225003,"commuter_rail|inter_city_rail",1983
8,"太和 Tai Wo",22.4509947742951,114.161206544681,"commuter_rail|inter_city_rail",1989
9,"粉嶺 Fanling",22.4919216720573,114.138920873746,"commuter_rail|inter_city_rail",1910
10,"上水 Sheung Shui",22.5012666395778,114.127954877111,"commuter_rail|inter_city_rail",1982
11,"羅湖 Lo Wu",22.5287054224627,114.113280682341,"commuter_rail|inter_city_rail",1910
12,"黃埔 Whampoa",22.3048739087054,114.189692607937,"heavy_rail",2016
13,"落馬洲 Lok Ma Chau",22.5145356308727,114.065721039982,"commuter_rail",2007
14,"何文田 Ho Man Tin",22.309248738178,114.182702803565,"heavy_rail",2016
15,"油麻地 Yau Ma Tei",22.3129881357263,114.170698285515,"heavy_rail",1985
16,"旺角 Mong Kok",22.3191861239456,114.169432889309,"heavy_rail",1985
17,"太子 Prince Edward",22.3244236936352,114.168332161974,"heavy_rail",1982
18,"石硤尾 Shek Kip Mei",22.3318446361209,114.168795570515,"heavy_rail",1979
19,"九龍塘 Kowloon Tong",22.3368046302971,114.177583869767,"heavy_rail",1979
20,"樂富 Lok Fu",22.3380202866579,114.187046962795,"heavy_rail",1979
21,"黃大仙 Wong Tai Sin",22.3416485555,114.194419496267,"heavy_rail",1979
22,"鑽石山 Diamond Hill",22.3399970452538,114.201667815136,"heavy_rail",1979
23,"彩虹 Choi Hung",22.3353114056978,114.208623344918,"heavy_rail",1979
24,"九龍灣 Kowloon Bay",22.3234731605568,114.214082841212,"heavy_rail",1979
25,"牛頭角 Ngau Tau Kok",22.315413007475,114.219238868969,"heavy_rail",1979
26,"觀塘 Kwun Tong",22.312214685008,114.226444762711,"heavy_rail",1979
27,"藍田 Lam Tin",22.3066852843529,114.232983370976,"heavy_rail",1989
28,"油塘 Yau Tong",22.2978185928213,114.237254064242,"heavy_rail",2002
29,"調景嶺 Tiu Keng Leng",22.3041339896676,114.252351150527,"heavy_rail",2002
30,"尖沙咀 Tsim Sha Tsui",22.2971347962734,114.172237366289,"heavy_rail",1979
31,"佐敦 Jordan",22.3050452973441,114.171706988661,"heavy_rail",1979
32,"油麻地 Yau Ma Tei",22.3129808954628,114.170655399826,"heavy_rail",1985
33,"旺角 Mong Kok",22.3191724337824,114.169367467952,"heavy_rail",1985
34,"太子 Prince Edward",22.3244112605587,114.168267470826,"heavy_rail",1982
35,"深水埗 Sham Shui Po",22.3306030617074,114.162447236414,"heavy_rail",1982
36,"長沙灣 Cheung Sha Wan",22.3354878124564,114.156177367766,"heavy_rail",1982
37,"茘枝角 Lai Chi Kok",22.3371216326673,114.147783940139,"heavy_rail",1982
38,"美孚 Mei Foo",22.3379121399189,114.139222591151,"heavy_rail",1985
39,"茘景 Lai King",22.3483709724484,114.126211424817,"heavy_rail",1982
40,"葵芳 Kwai Fong",22.3569461209832,114.12793487934,"heavy_rail",1982
41,"葵興 Kwai Hing",22.363013804057,114.131189449298,"heavy_rail",1982
42,"荃灣 Tsuen Wan",22.3735895896276,114.117842888209,"heavy_rail",1982
43,"大窩口 Tai Wo Hau",22.370748941511,114.125153937676,"heavy_rail",1982
44,"上環 Sheung Wan",22.2865374118068,114.152134678782,"heavy_rail",1986
45,"西營盤 Sai Ying Pun",22.2853691922252,114.142825418978,"heavy_rail",2015
46,"香港大學 HKU",22.2839683301516,114.135475790282,"heavy_rail",2014
47,"堅尼地城 Kennedy Town",22.2811084725476,114.128450952106,"heavy_rail",2014
48,"筲箕灣 Shau Kei Wan",22.2790893937477,114.228700192125,"heavy_rail",1985
49,"杏花邨 Heng Fa Chuen",22.2766257705215,114.239769979825,"heavy_rail",1985
50,"柴灣 Chai Wan",22.2646473453429,114.237159442588,"heavy_rail",1985
51,"香港 Hong Kong",22.2851106830394,114.158323401474,"commuter_rail",1998
52,"九龍 Kowloon",22.3048869154269,114.161663818464,"commuter_rail",1998
53,"奧運 Olympic",22.3176148126091,114.160306290622,"commuter_rail",1998
54,"南昌 Nam Cheong",22.3262308151157,114.153670984744,"commuter_rail",2003
55,"茘景 Lai King",22.3482624728839,114.126057352992,"commuter_rail",1998
56,"青衣 Tsing Yi",22.3583703152031,114.107452265784,"commuter_rail",1998
57,"欣澳 Sunny Bay",22.3318981168804,114.028830257012,"commuter_rail",2005
58,"東涌 Tung Chung",22.2892486257675,113.941407912429,"commuter_rail",1998
59,"鰂魚涌 Quarry Bay",22.288143997187,114.208632187695,"heavy_rail",2002
60,"油塘 Yau Tong",22.2977340452637,114.237132577855,"heavy_rail",2002
61,"調景嶺 Tiu Keng Leng",22.3040878224414,114.252395925649,"heavy_rail",2002
62,"將軍澳 Tseung Kwan O",22.3074113672336,114.26004447179,"heavy_rail",2002
63,"坑口 Hang Hau",22.3155900296011,114.264435679301,"heavy_rail",2002
64,"寶琳 Po Lam",22.3225515350725,114.257955106032,"heavy_rail",2002
65,"康城 LOHAS Park",22.2956354576268,114.26885360999,"heavy_rail",2009
66,"紅磡 Hung Hom",22.3026421244544,114.181403207921,"commuter_rail",2009
67,"尖東 East Tsim Sha Tsui",22.2953216550471,114.174681270373,"commuter_rail|heavy_rail|inter_city_rail",2004
68,"柯士甸 Austin",22.3044553400732,114.166506093844,"commuter_rail|heavy_rail",2009
69,"南昌 Nam Cheong",22.3266443826125,114.153867201553,"commuter_rail|heavy_rail",2003
70,"美孚 Mei Foo",22.3388847609908,114.136462355711,"commuter_rail|heavy_rail",2003
71,"錦上路 Kam Sheung Road",22.4348113390584,114.063412870166,"commuter_rail|heavy_rail",2003
72,"元朗 Yuen Long",22.4460635504597,114.035390767112,"commuter_rail|heavy_rail",2003
73,"朗屏 Long Ping",22.4476935392285,114.025461681763,"commuter_rail|heavy_rail",2003
74,"天水圍 Tin Shui Wai",22.4478217265553,114.004361624776,"commuter_rail|heavy_rail",2003
75,"兆康 Siu Hong",22.4118358988337,113.978935924355,"commuter_rail|heavy_rail",2003
76,"屯門 Tuen Mun",22.3951494806202,113.973190043419,"commuter_rail|heavy_rail",2003
77,"啟德 Kai Tak",22.3302472071565,114.199255555681,"heavy_rail",2020
78,"鑽石山 Diamond Hill",22.3395268581408,114.201269506381,"heavy_rail",2020
79,"顯徑 Hin Keng",22.3637716860426,114.170774272362,"heavy_rail",2020
80,"大圍 Tai Wai",22.3727395224443,114.178724192411,"heavy_rail",2004
81,"車公廟 Che Kung Temple",22.3747410449822,114.186049217926,"heavy_rail",2004
82,"沙田圍 Sha Tin Wai",22.3768420482068,114.194819921575,"heavy_rail",2004
83,"第一城 City One",22.3830014376102,114.203729097674,"heavy_rail",2004
84,"石門 Shek Mun",22.3876938066603,114.208404298352,"heavy_rail",2004
85,"大水坑 Tai Shui Hang",22.4085009080293,114.222739207403,"heavy_rail",2004
86,"恆安 Heng On",22.4178875079627,114.225845422415,"heavy_rail",2004
87,"馬鞍山 Ma On Shan",22.4248676826438,114.231692351542,"heavy_rail",2004
88,"烏溪沙 Wu Kai Sha",22.4291668300189,114.243848209921,"heavy_rail",2004
89,"海洋公園 Ocean Park",22.2486613947388,114.174350382783,"heavy_rail",2016
90,"黃竹坑 Wong Chuk Hang",22.2478340990837,114.167485123364,"heavy_rail",2016
91,"利東 Lei Tung",22.2418903392282,114.156030673542,"heavy_rail",2016
92,"海怡半島 South Horizons",22.2424058690154,114.149127710734,"heavy_rail",2016
93,"香港 Hong Kong",22.2850198312142,114.158266760006,"commuter_rail",1998
94,"九龍 Kowloon",22.3049413793971,114.161523682648,"commuter_rail",1998
95,"青衣 Tsing Yi",22.358348219242,114.107447655643,"commuter_rail",1998
96,"機場 Airport",22.3159257457798,113.936577651423,"commuter_rail",1998
97,"博覽館 AsiaWorld–Expo",22.3220493004294,113.942187747833,"commuter_rail",2005
98,"欣澳 Sunny Bay",22.3316728266618,114.029008354801,"heavy_rail",2005
99,"迪士尼 Disneyland Resort",22.3154874292774,114.045182597631,"heavy_rail",2005
100,"Kowloon",22.2946061124508,114.171922068716,"inter_city_rail",1910
101,"Hung Hom",22.3030141912879,114.178001019894,"inter_city_rail",1910
102,"Yaumati",22.3217395498098,114.172612527345,"inter_city_rail",1910
103,"Tai Po",22.4410200528652,114.182898562811,"inter_city_rail",1910
104,"Tai Po Market",22.4476769580071,114.164075987644,"inter_city_rail",1910
105,"Kowloon",22.2938570601738,114.170455750176,"inter_city_rail",1916
106,"Ma Liu Shui",22.4133778931124,114.210069929298,"inter_city_rail",1955
107,"Mong Kok",22.3217386534408,114.172571905491,"inter_city_rail",1969
108,"Hung Hom",22.3030867276895,114.180765331469,,1975
109,"Hung Ling",22.511793791524,114.164891581391,"commuter_rail",1912
110,"旺角東 Mong Kok East",22.3217609241137,114.172588450102,"commuter_rail|inter_city_rail",1982
111,"紅磡 Hung Hom",22.3026281709376,114.181490684475,"commuter_rail|inter_city_rail",1975
112,"Sheung Shui",22.5040934739649,114.124625283522,"inter_city_rail",1930
113,"Fanling",22.4927719070175,114.138625316362,"commuter_rail",1912
114,"Wo Hang",22.5255652111768,114.193834639826,"commuter_rail",1912
115,"Shek Chung Au",22.5368508496672,114.208701415394,"commuter_rail",1912
116,"Sha Tau Kok",22.5459131299647,114.222502727207,"commuter_rail",1912
117,"East Tsim Sha Tsui",22.2957134512139,114.17448732833,,2004
118,"Kwu Tung",22.5076246811083,114.10004243858,"commuter_rail",2007
119,"East Tsim Sha Tsui",22.2958141326132,114.174640953308,,2007
120,"Wo Hop Shek",22.4826271724848,114.1435544684,"inter_city_rail",1949
121,"Argyle",22.3192136674252,114.169348757139,"heavy_rail",1979
122,"Waterloo",22.3130236376256,114.170630200629,"heavy_rail",1979
123,"中環 Central",22.2815517551209,114.159310979369,"heavy_rail",1985
124,"Chater",22.2815421235917,114.159345587929,"heavy_rail",1980
125,"金鐘 Admiralty",22.2793206091946,114.16533172206,"heavy_rail",1980
126,"Argyle",22.3192261753369,114.169432175044,"heavy_rail",1982
127,"Waterloo",22.3130376399817,114.170713199316,"heavy_rail",1982
128,"Lai Wan",22.3379451983852,114.139139314914,"heavy_rail",1982
129,"Quarry Bay",22.2881460028126,114.208713531386,"heavy_rail",1989
130,"North Point",22.2904110273524,114.200649106956,"heavy_rail",2001
131,"北角 North Point",22.29038415222,114.200518300133,"heavy_rail",2002
132,"中環 Central",22.281834529021,114.157855352185,"heavy_rail",1986
133,"金鐘 Admiralty",22.279087235099,114.165315954678,"heavy_rail",1985
134,"灣仔 Wan Chai",22.2775621388341,114.172987418089,"heavy_rail",1985
135,"銅鑼灣 Causeway Bay",22.2800997547077,114.184018383313,"heavy_rail",1985
136,"天后 Tin Hau",22.2822217874772,114.192047668766,"heavy_rail",1985
137,"炮台山 Fortress Hill",22.2876172130162,114.193309381236,"heavy_rail",1985
138,"北角 North Point",22.2911316515334,114.200414762287,"heavy_rail",1985
139,"鰂魚涌 Quarry Bay",22.2883627400326,114.20885730547,"heavy_rail",1985
140,"太古 Tai Koo",22.2845386839088,114.216398729672,"heavy_rail",1985
141,"西灣河 Sai Wan Ho",22.2816223981599,114.22228637199,"heavy_rail",1985
142,"金鐘 Admiralty",22.2781445442485,114.165845978817,"heavy_rail",2016
143,"荃灣西 Tsuen Wan West",22.368369926421,114.109982207185,"commuter_rail|heavy_rail",2003
144,"Exhibition Centre",22.2816192939563,114.175639376595,"commuter_rail",2022
145,"Admiralty",22.2789144242471,114.166626292756,"commuter_rail",2022
146,"Sung Wong Toi",22.3258593466804,114.191263659872,"heavy_rail",2021
147,"To Kwa Wan",22.316957597493,114.18758568689,"heavy_rail",2021
148,"Ho Man Tin",22.3094382968582,114.182688819298,"heavy_rail",2021
149,"Hung Hom",22.3027279521433,114.182204053684,"heavy_rail",2021
150,"West Kowloon",22.3044979034707,114.16483531486,"high_speed_rail",2018
151,"The Peak",22.2711371858441,114.150144335086,"tram",1888
152,"Barker Road",22.2710000956814,114.151654809199,"tram",1888
153,"May Road",22.2734033285345,114.155951317134,"tram",1888
154,"Bowen Road",22.274748413682,114.156868100113,"tram",1888
155,"MacDonnell Road",22.2752367186279,114.157213113371,"tram",1888
156,"Kennedy Road",22.2766033778644,114.158179532538,"tram",1888
157,"Garden Road",22.2777445289092,114.159205333542,"tram",1888
158,"Kennedy Town Terminus",22.2829759269295,114.126229677481,"tram",1904
159,"Davis Street",22.2830314110652,114.12693366848,"tram",1904
160,"Smithfield",22.2831715486792,114.127752598558,"tram",1904
161,"North Street",22.2833659905983,114.128777458813,"tram",1904
162,"Sands Street",22.2834911452736,114.129340236676,"tram",1904
163,"Holland Street",22.2843678140817,114.130401230594,"tram",1904
164,"Kennedy Town Praya",22.284340971007,114.130388816529,"tram",1904
165,"Queen's Road West",22.2864482703909,114.132253224459,"tram",1904
166,"Hill Road",22.2870921763962,114.134356160084,"tram",1904
167,"Shek Tong Tsui Terminus",22.2871895313819,114.135068412186,"tram",1904
168,"Whitty Street",22.2868299923426,114.136585315525,"tram",1904
169,"Water Street",22.2874519728889,114.138865089141,"tram",1904
170,"Western Street",22.2879676619595,114.140775187951,"tram",1904
171,"Eastern Street",22.2878688511391,114.143807348597,"tram",1904
172,"Sutherland Street",22.2877354949116,114.14611850321,"tram",1904
173,"Queen Street",22.2876778622131,114.14691620246,"tram",1904
174,"Connaught Road West",22.2880494137381,114.148739307053,"tram",1904
175,"Macau Ferry Terminal",22.2877602584994,114.149946329213,"tram",1904
176,"Western Market Terminus",22.2868783222467,114.150759266738,"tram",1904
177,"Hillier Street",22.2866049441382,114.151907521498,"tram",1904
178,"Man Wah Lane",22.2863346445445,114.152897807072,"tram",1904
179,"Gilman Street",22.2853964387471,114.154743338652,"tram",1904
180,"Jubilee Street",22.2846825632437,114.155649480535,"tram",1904
181,"Pottinger Street",22.283411637292,114.156660942728,"tram",1904
182,"Pedder Street",22.2819601723474,114.15782483995,"tram",1904
183,"Ice House Street",22.2810451541802,114.158587771643,"tram",1904
184,"Bank Street",22.2805609759566,114.160011019792,"tram",1904
185,"Murray Road",22.2797670322944,114.161751401741,"tram",1904
186,"Cotton Tree Drive",22.279046109731,114.163143095111,"tram",1904
187,"Admiralty MTR Station",22.2783381125328,114.164474428516,"tram",1904
188,"Arsenal Street",22.2778162702041,114.168313471074,"tram",1904
189,"Fenwick Street",22.2772387748013,114.170067021983,"tram",1904
190,"Gresson Street",22.2771394263086,114.170181741823,"tram",1904
191,"Luard Road",22.2764408955022,114.171995512881,"tram",1904
192,"Swatow Street",22.2764277920839,114.17208565447,"tram",1904
193,"O'Brien Road",22.2765696570149,114.17331967851,"tram",1904
194,"Fleming Road",22.2769966866914,114.175365690583,"tram",1904
195,"Burrows Street",22.2773253113155,114.17597354052,"tram",1904
196,"Tonnochy Road",22.2781792273858,114.177607835125,"tram",1904
197,"Canal Road West",22.2793022329461,114.18102108165,"tram",1904
198,"Percival Street",22.2800282567371,114.182940431919,"tram",1904
199,"Paterson Street",22.2797687976518,114.185847207473,"tram",1904
200,"Pennington Street",22.2795332201943,114.186546345206,"tram",1904
201,"Causeway Bay Terminus",22.2792793685556,114.187053124029,"tram",1904
202,"Shelter Street",22.2796483387895,114.188018616636,"tram",1904
203,"Victoria Park",22.280576987012,114.189413510255,"tram",1904
204,"Hing Fat Street",22.281754626337,114.191127884676,"tram",1904
205,"Lau Sin Street",22.282730297468,114.19220380371,"tram",1904
206,"Lau Li Street",22.2844806869145,114.192745285786,"tram",1904
207,"Wing Hing Street",22.2850204354517,114.192842126018,"tram",1904
208,"Jupiter Street",22.2864429525309,114.192903971058,"tram",1904
209,"Fortress Hill",22.2891259132396,114.194259023823,"tram",1904
210,"Chun Yeung Street",22.2911065490271,114.196814062221,"tram",1904
211,"North Point Road",22.2905424134866,114.197135932611,"tram",1904
212,"North Point Terminus",22.2910522166652,114.198776128973,"tram",1904
213,"Shu Kuk Street",22.2911923664358,114.200308379505,"tram",1904
214,"Tin Chiu Street",22.2918551614986,114.203532475098,"tram",1904
215,"Healthy Street West",22.2920970078978,114.205176551681,"tram",1904
216,"Healthy Street East",22.2917306484398,114.207520866555,"tram",1904
217,"Java Road",22.2907652923524,114.209098787524,"tram",1904
218,"Finnie Street",22.2884879099227,114.209887675075,"tram",1904
219,"Mount Parker Road",22.2855934858221,114.211192689835,"tram",1904
220,"Shipyard Lane",22.2846726360802,114.213841485537,"tram",1904
221,"Kornhill",22.2846363186071,114.216082274048,"tram",1904
222,"Tai Koo Shing Road",22.2840762710606,114.220366143476,"tram",1904
223,"Tai Hong Street",22.2831606246603,114.221081318052,"tram",1904
224,"Tai On Street",22.2823303261657,114.221743823702,"tram",1904
225,"Holy Cross Path",22.2812272874439,114.222641080762,"tram",1904
226,"Hoi Foo Street",22.2804157846142,114.224419608985,"tram",1904
227,"Sun Sing Street",22.2795297031303,114.225830916932,"tram",1904
228,"Nam Hong Street",22.2787274096968,114.226343031449,"tram",1904
229,"Chai Wan Road",22.2767671728118,114.229000271619,"tram",1904
230,"Shau Kei Wan Terminus",22.2778903698968,114.230134645684,"tram",1904
231,"Foo Ming Street",22.27874298659,114.183203306769,"tram",1922
232,"Leighton Road",22.2769668128624,114.182343492607,"tram",1922
233,"Broadwood Road",22.2738845133793,114.183704291806,"tram",1922
234,"Wong Nai Chung Road",22.2722230249497,114.184497883761,"tram",1922
235,"Happy Valley Terminus",22.2698652815775,114.184255903754,"tram",1922
236,"Hong Kong Cemetery",22.2724060393199,114.179885680568,"tram",1922
237,"Queen's Road East",22.274435015157,114.179460467312,"tram",1922
238,"Morrison Hill Road",22.2758657515911,114.180571687997,"tram",1922
239,"Tin Lok Lane",22.2785209750947,114.179646437567,"tram",1922
240,"Skypier",22.3182463518667,113.943730216126,"people_mover",2010
241,"Terminal 2",22.3163138134208,113.937772807916,"people_mover",2007
242,"Terminal 1 (East Hall)",22.3149952195944,113.93368856592,"people_mover",1998
243,"Terminal 1 (West Hall)",22.3129241130951,113.927128876384,"people_mover",1998
244,"Midfield Concourse",22.3099484154955,113.917770605453,"people_mover",2016
245,"Central Star Ferry Pier",22.2870539616952,114.161214959789,"ferry",2006
246,"Tsim Sha Tsui Star Ferry Pier",22.2937839512469,114.16820865196,"ferry",1906
247,"Wan Chai Pier",22.2833741237582,114.176224213445,"ferry",2014
248,"Tsim Sha Tsui Star Ferry Pier",22.2932103892721,114.168625680788,"ferry",2014
249,"Hung Hom Ferry Pier",22.3005155726827,114.189259713662,"ferry",0
