"nodeID","nodeLabel","latitude","longitude","mode","year"
1,"Waterloo",51.502667678402,-0.113046029341803,"heavy_rail",1898
2,"Waterloo",51.5025623884227,-0.113300125722532,"heavy_rail",1926
3,"Kennington",51.4882887783789,-0.105969111046448,"heavy_rail",1890
4,"826",51.4818923444403,-0.112767013260253,"heavy_rail",1890
5,"Clapham Common",51.4617696223592,-0.138072043935634,"heavy_rail",1900
6,"Stockwell",51.4722853921342,-0.122805089945132,"heavy_rail",1890
7,"Clapham North",51.4650741475531,-0.129502061110002,"heavy_rail",1900
8,"Elephant & Castle",51.4952440714282,-0.100358297572676,"heavy_rail",1890
9,"Borough",51.501201489119,-0.093640365387245,"heavy_rail",1890
10,"London Bridge",51.5060410348333,-0.088454290083177,"heavy_rail",1900
11,"Clapham South",51.4528010475682,-0.147704295554433,"heavy_rail",1926
12,"Balham",51.4433656098332,-0.152913279715118,"heavy_rail",1926
13,"Tooting Bec",51.4356455391227,-0.159615642807875,"heavy_rail",1926
14,"Tooting Broadway",51.4276375006621,-0.167970568580753,"heavy_rail",1926
15,"Colliers Wood",51.4181091667991,-0.177990425550799,"heavy_rail",1926
16,"South Wimbledon",51.4153111499316,-0.19192492012229,"heavy_rail",1926
17,"Morden",51.4023112168548,-0.194738001953908,"heavy_rail",1926
18,"Wimbledon

",51.4213005088393,-0.206534681792135,"heavy_rail",1889
19,"

Wimbledon Park",51.434551013077,-0.199583230195714,"heavy_rail",1889
20,"Southfields



",51.4448941185925,-0.206761656249029,"heavy_rail",1889
21,"

East Putney",51.4591146759369,-0.210799204777231,"heavy_rail",1889
22,"

Putney Bridge",51.4680104839472,-0.208943099779106,"heavy_rail",1880
23,"

Parsons Green",51.4752410178311,-0.200904798510749,"heavy_rail",1880
24,"

Fulham Broadway",51.4801874585138,-0.195032178512292,"heavy_rail",1880
25,"

West Brompton",51.4873744205501,-0.195647307679298,"heavy_rail",1869
26,"Earl's Court",51.4922354191848,-0.193047595628243,"heavy_rail",1871
27,"

Clapham Junction",51.4650293658842,-0.170680660877497,"commuter_rail",2007
28,"

Kensington (Olympia)",51.4978565852294,-0.210082982842738,"commuter_rail|heavy_rail|inter_city_rail",1863
29,"Willesden Junction",51.5319891388112,-0.243335844573046,"commuter_rail",2007
30,"

Shepherd's Bush",51.505474789448,-0.217764815285056,"commuter_rail|inter_city_rail",2008
31,"Gloucester Road",51.4946801617564,-0.183388444905726,"heavy_rail",1868
32,"South Kensington",51.494117483947,-0.173826279312178,"heavy_rail",1868
33,"Sloane Square",51.4925509333123,-0.156615109100784,"heavy_rail",1868
34,"Victoria",51.4962838998217,-0.143519614789809,"heavy_rail",1868
35,"West Kensington",51.490588948446,-0.20641782346289,"heavy_rail",1874
36,"Barons Court",51.4903398626441,-0.213534679975512,"heavy_rail",1906
37,"Hammersmith",51.4922533216477,-0.223455543321537,"heavy_rail",1874
38,"Imperial Wharf

",51.4750528057743,-0.182996745663445,"commuter_rail",2008
39,"St. James's Park",51.4994500411455,-0.133433767199392,"heavy_rail",1868
40,"Westminster",51.501000805162,-0.124383201310332,"heavy_rail",1868
41,"Embankment",51.5070147761409,-0.121984672309725,"heavy_rail",1870
42,"Blackfriars",51.5118986657031,-0.10346108283626,"heavy_rail",1866
43,"Temple",51.5109018549751,-0.113680251128199,"heavy_rail",1870
44,"Monument",51.5108815069953,-0.086326354327032,"heavy_rail",1884
45,"Cannon Street",51.5113676938825,-0.090243141988287,"heavy_rail",1884
46,"Mansion House",51.51210484055,-0.094066547828517,"heavy_rail",1871
47,"Lambeth North",51.4989057817589,-0.112073923486577,"heavy_rail",1906
48,"Waterloo",51.5024433173691,-0.113486341004204,"heavy_rail",1906
49,"

Vauxhall",51.485970160315,-0.124749830869519,"heavy_rail",1971
50,"Pimlico",51.4892631248012,-0.133403136811188,"heavy_rail",1972
51,"Brixton",51.4625961916144,-0.114733984460421,"heavy_rail",1971
52,"Vauxhall",51.4860145438952,-0.122692568960509,"inter_city_rail",1848
53,"

Waterloo",51.502036894207,-0.113813555293802,"inter_city_rail",1848
54," Queenstown Road",51.4750829055477,-0.146301536084122,"inter_city_rail",1877
55,"

Earlsfield",51.4422942158313,-0.187406496776902,"inter_city_rail",1884
56,"Wimbledon",51.4210574119618,-0.206368878234684,"inter_city_rail",1838
57,"Raynes Park",51.4090560952892,-0.230228211438111,"inter_city_rail",1871
58,"929",51.4037320609753,-0.256332832247011,"inter_city_rail",1846
59,"930",51.3990971679693,-0.280336932706518,"inter_city_rail",1933
60,"931",51.3922601851038,-0.304308846623599,"inter_city_rail",1838
61,"Waterloo",51.502927776377,-0.112639522626296,"heavy_rail",1999
62,"London Bridge",51.5049935036197,-0.088259825619076,"heavy_rail",1999
63,"Stratford",51.5416022492923,-0.004107988746137,"commuter_rail|heavy_rail|light_rail",1840
64,"West Ham",51.5274836571223,0.004540456067161,"commuter_rail|heavy_rail|light_rail",1901
65,"Canning Town",51.5139918440598,0.008342572746222,"commuter_rail|heavy_rail|light_rail",1847
66,"North Greenwich",51.500618452561,0.00322587334405,"heavy_rail",1999
67,"Canary Wharf",51.5035907810748,-0.018000282638923,"heavy_rail",1999
68,"Bermondsey",51.4971987390816,-0.066010153275814,"heavy_rail",1999
69,"Wandsworth Road

",51.4700135541446,-0.138380443115248,"commuter_rail",2012
70,"Clapham High Street

",51.4654624378017,-0.132170838937024,"commuter_rail",2012
71,"

Peckham Rye",51.4700033873848,-0.069409503134964,"commuter_rail|inter_city_rail",1865
72,"Queens Road Peckham

",51.473546116602,-0.0574582676673,"commuter_rail|inter_city_rail",1866
73,"

Nine Elms",51.4791010060671,-0.136307017725073,"inter_city_rail",1838
74,"Ravenscourt Park",51.49411,-0.235594243678981,"heavy_rail",1912
75,"Stamford Brook",51.4949664385468,-0.244850634061229,"heavy_rail",1877
76,"Turnham Green",51.4951570317332,-0.255344048908128,"heavy_rail",1877
77,"Gunnersbury",51.49133901443,-0.275547869283492,"commuter_rail|heavy_rail",1877
78,"Kew Gardens",51.4770463289836,-0.284976513890529,"commuter_rail|heavy_rail",1877
79,"Richmond",51.4631964864437,-0.300502115090656,"commuter_rail|heavy_rail|inter_city_rail",1846
80,"Ealing Common",51.510225696643,-0.288203423587739,"heavy_rail",1879
81,"Acton Town",51.5030129693556,-0.280306248868636,"heavy_rail",1879
82,"Chiswick Park",51.4946046592734,-0.267888195191138,"heavy_rail",1879
83,"Warren Street",51.524665076898,-0.138514411526131,"heavy_rail",1968
84,"Euston",51.5278385149239,-0.132937108846448,"heavy_rail",1968
85,"King's Cross St. Pancras",51.53056675166,-0.123496800735229,"heavy_rail",1968
86,"Finsbury Park",51.5647159544286,-0.106087285523127,"heavy_rail",1968
87,"Blackhorse Road",51.5866445932687,-0.041023110519876,"heavy_rail",1968
88,"Tottenham Hale",51.5882681189553,-0.060487573132719,"heavy_rail",1968
89,"Seven Sisters",51.5834235468176,-0.072224836319782,"heavy_rail",1968
90,"Tower Hill",51.509745756532,-0.07645,"heavy_rail",1884
91,"Aldgate East",51.5152576240531,-0.0717280224308,"heavy_rail",1884
92,"Whitechapel",51.5197706258678,-0.060147317785812,"commuter_rail|heavy_rail",1876
93,"Putney",51.4610323090455,-0.216082872820664,"inter_city_rail",1846
94,"1230",51.4668189219673,-0.241093855951476,"inter_city_rail",1846
95,"Wandsworth Town",51.461102031805,-0.187938522483734,"inter_city_rail",1846
96,"1232",51.4680844778389,-0.267104652999677,"inter_city_rail",1846
97,"1233",51.4652811148242,-0.286686394344486,"inter_city_rail",1930
98,"1241",51.4500277279389,-0.330133936178669,"inter_city_rail",1848
99,"1244",51.4551574640759,-0.320339863971043,"inter_city_rail",1876
100,"1251",51.4388796201782,-0.339366652520852,"inter_city_rail",1873
101,"1252",51.4243804383343,-0.332718510881222,"inter_city_rail",1863
102,"1253",51.4145722711868,-0.312482340442642,"inter_city_rail",1863
103,"1254",51.4128205563903,-0.300953906417078,"inter_city_rail",1863
104,"1255",51.4125656762863,-0.285047581903825,"inter_city_rail",1869
105,"Euston",51.5283182083842,-0.133425014797268,"heavy_rail",1907
106,"Warren Street",51.5247695280419,-0.137639294357228,"heavy_rail",1907
107,"Goodge Street",51.5205052296286,-0.134499236818746,"heavy_rail",1907
108,"Tottenham Court Road",51.5162976670377,-0.130210984620447,"heavy_rail",1907
109,"Leicester Square",51.5113482150425,-0.128378065651893,"heavy_rail",1906
110,"Charing Cross",51.5085910232806,-0.12493676005067,"heavy_rail",1906
111,"Mornington Crescent",51.5343555676379,-0.138866232767918,"heavy_rail",1907
112,"Camden Town",51.5392592363623,-0.142593267475831,"heavy_rail",1907
113,"Chalk Farm",51.5440321904598,-0.153434578239882,"heavy_rail",1907
114,"Old Street",51.525613676416,-0.08761660939743,"commuter_rail|heavy_rail",1901
115,"Angel",51.5324872646172,-0.106009541290066,"heavy_rail",1901
116,"Regent's Park",51.5237249995366,-0.146566285034766,"heavy_rail",1906
117,"Piccadilly Circus",51.5098487445956,-0.134317942544303,"heavy_rail",1906
118,"Embankment",51.5065601292605,-0.122331758321741,"heavy_rail",1906
119,"East Putney",51.4585356563624,-0.21112991196452,"inter_city_rail",1889
120,"Paddington",51.5156662050392,-0.175474164198136,"heavy_rail",1868
121,"Bayswater",51.5123438718164,-0.187901744365178,"heavy_rail",1868
122,"Paddington",51.5176415393587,-0.176419787693845,"heavy_rail",1913
123,"Edgware Road",51.5204448709813,-0.170449333530087,"heavy_rail",1907
124,"1281",51.5222005027751,-0.163013546267052,"heavy_rail",1907
125,"Canada Water",51.4979968003029,-0.049676461178656,"commuter_rail|heavy_rail",1999
126,"Rotherhithe",51.5008358921952,-0.051933440781411,"commuter_rail",1869
127,"Wapping",51.5043706885514,-0.055890903497338,"commuter_rail",1869
128,"Surrey Quays",51.4934247788995,-0.047792462522995,"commuter_rail|heavy_rail",1869
129,"New Cross Gate",51.4750424937065,-0.040301039115742,"commuter_rail|heavy_rail|inter_city_rail",1839
130,"Shadwell",51.5112109620185,-0.056911572079021,"commuter_rail",1876
131,"Shoreditch",51.5228709712523,-0.069826332104309,"heavy_rail",1876
132,"Shoreditch High Street",51.5232636818361,-0.075578938278531,"commuter_rail",2010
133,"Hoxton",51.5313353332987,-0.07562078805865,"commuter_rail",2010
134,"Haggerston",51.5387262183664,-0.075565079027791,"commuter_rail",1865
135,"Dalston Junction",51.5460779592345,-0.075172573976648,"commuter_rail",1865
136,"Island Gardens",51.4879056162452,-0.010318317588876,"light_rail",1999
137,"Tower Gateway",51.5103682138035,-0.074544223928379,"light_rail",1987
138,"Shadwell",51.511746583428,-0.055731694744473,"commuter_rail|light_rail",1840
139,"Limehouse (Stepney)",51.512333863976,-0.039589848507645,"commuter_rail|light_rail",1840
140,"West India",51.5094618196167,-0.026940737687141,"light_rail",1987
141,"North Quay",51.506833669525,-0.020632505620483,"light_rail",1987
142,"Canary Wharf",51.5050672972359,-0.021008606161359,"light_rail",1987
143,"Heron Quays",51.50313059334,-0.021470184813381,"light_rail",1987
144,"South Quay",51.4999912558559,-0.016204777002486,"light_rail",1987
145,"Lewisham",51.4649320093104,-0.011590841476874,"light_rail",1999
146,"Cutty Sark",51.4814207394092,-0.010357658535051,"light_rail",1999
147,"Greenwich",51.478018368772,-0.014130010098484,"light_rail",1999
148,"Deptford Bridge",51.47427,-0.022363756120905,"light_rail",1999
149,"Elverson Road",51.4690903812344,-0.016716097585883,"light_rail",1999
150,"Barking",51.5396220899118,0.081024916414298,"commuter_rail|heavy_rail",1858
151,"South Acton",51.4995384789219,-0.270125464594619,"commuter_rail",2007
152,"Acton Central",51.5086686471889,-0.262805162715221,"commuter_rail",2007
153,"1312",51.5078648780705,-0.125319291903622,"heavy_rail",1979
154,"Shepherd's Bush",51.5044694548995,-0.217612586048756,"heavy_rail",1900
155,"Holland Park",51.5072061494819,-0.205621597369657,"heavy_rail",1900
156,"Queensway",51.5103826930131,-0.187257639356233,"heavy_rail",1900
157,"Lancaster Gate",51.5118745380792,-0.175073068582179,"heavy_rail",1900
158,"Marble Arch",51.5134444941081,-0.158367125618452,"heavy_rail",1900
159,"Bond Street",51.5142630933155,-0.150216672971344,"heavy_rail",1900
160,"Oxford Circus",51.5152576200759,-0.142038136980752,"heavy_rail",1900
161,"Tottenham Court Road",51.5165336972893,-0.130730044535795,"heavy_rail",1900
162,"Holborn",51.5176097605682,-0.120056676560353,"heavy_rail",1900
163,"Chancery Lane",51.5181608419171,-0.111572074954665,"heavy_rail",1900
164,"St. Paul's",51.5149210383582,-0.097497591983029,"heavy_rail",1900
165,"Bank",51.5134218317063,-0.088948396745828,"heavy_rail|light_rail",1898
166,"Finsbury Park",51.5647057385784,-0.105891029929593,"heavy_rail",1906
167,"Arsenal",51.5584589524569,-0.105679264261658,"heavy_rail",1906
168,"Holloway Road",51.5527906652545,-0.112797167413599,"heavy_rail",1906
169,"Caledonian Road",51.5485194864805,-0.118210614933211,"heavy_rail",1906
170,"King's Cross St. Pancras",51.5306342197087,-0.1229857154608,"heavy_rail",1906
171,"Russell Square",51.5231103927478,-0.124262879036537,"heavy_rail",1906
172,"Holborn",51.5176926623476,-0.119851807603567,"heavy_rail",1906
173,"Green Park",51.5069456921448,-0.142452022471035,"heavy_rail",1906
174,"Hyde Park Corner",51.5027091771724,-0.15282921980085,"heavy_rail",1906
175,"Knightsbridge",51.5015113445827,-0.160526311502764,"heavy_rail",1906
176,"South Kensington",51.4945419425906,-0.174275910218136,"heavy_rail",1906
177,"1347",51.5083450224594,-0.103276847500382,"commuter_rail",1864
178,"Elephant & Castle",51.4945254476952,-0.098421069628188,"commuter_rail",1862
179,"1349",51.4663621755818,-0.102223022927632,"commuter_rail",1863
180,"City Thameslink",51.5153638910211,-0.1037841935405,"commuter_rail",1990
181,"Kings Cross Thameslink (Metropolitan)",51.5305969046706,-0.120354626070533,"commuter_rail|default|heavy_rail",1863
182,"Southwark",51.5038392267919,-0.104781906623373,"heavy_rail",1999
183,"Paddington",51.5163105638503,-0.176615548650034,"commuter_rail",1838
184,"Tulse Hill",51.4395804884552,-0.105236605597042,"commuter_rail|inter_city_rail",1868
185,"Streatham",51.4259505987595,-0.131360322848451,"commuter_rail",1868
186," Tooting",51.4198196195754,-0.160857850200994,"commuter_rail",1894
187," Haydons Road",51.4254642987936,-0.189150355325452,"commuter_rail",1868
188,"Wimbledon",51.4208914191519,-0.205910950279701,"commuter_rail",1868
189,"St Pancras (Thameslink)",51.5311272343003,-0.12659856493904,"commuter_rail|default",1868
190,"Kentish Town",51.5505727895096,-0.139990167556817,"commuter_rail",1868
191,"West Hampstead Thameslink",51.5484184826414,-0.192034803177933,"commuter_rail",1871
192,"Cricklewood",51.5582389879173,-0.212772903005714,"commuter_rail",1870
193,"Hendon",51.5800469793567,-0.238803564881111,"commuter_rail",1868
194,"Mill Hill Broadway",51.6133639520303,-0.249755178327518,"commuter_rail",1868
195,"Elsiree & Borehamwood",51.6529406662654,-0.280184248106508,"commuter_rail",1868
196,"East Acton",51.5168334998774,-0.247586852595248,"heavy_rail",1920
197,"White City",51.5118068122771,-0.223972426855524,"heavy_rail",1947
198,"North Acton",51.5234372730146,-0.26010987043361,"heavy_rail",1923
199,"West Acton",51.5180400040987,-0.28110706771372,"heavy_rail",1923
200,"Hanger Lane",51.5301772161674,-0.293211537488673,"heavy_rail",1947
201,"Perivale",51.537119934489,-0.324466106248508,"heavy_rail",1947
202,"Greenford",51.5420793409808,-0.345031506869333,"commuter_rail|heavy_rail",1903
203,"Northolt",51.5482365187284,-0.368254794478901,"heavy_rail",1948
204,"Ruislip Gardens",51.5610823530311,-0.411573462295962,"heavy_rail",1948
205,"West Ruislip",51.5700454956961,-0.438650686181603,"commuter_rail|heavy_rail",1906
206,"Stratford",51.5410349007469,-0.003970533259159,"heavy_rail",1946
207,"Bethnal Green",51.527144357546,-0.055900411406043,"heavy_rail",1946
208,"Mile End",51.5253288267503,-0.035539356930542,"heavy_rail",1946
209,"Mile End",51.5248089649912,-0.035398983794864,"heavy_rail",1902
210,"Stratford",51.5405466373896,-0.005102729590504,"light_rail",1987
211,"South Poplar",51.5076716109374,-0.016918308895277,"light_rail",1987
212,"All Saints (Poplar)",51.5110138149687,-0.013073704064047,"light_rail",1987
213,"Poplar North",51.5151215411539,-0.014048443795423,"light_rail",1987
214,"Devons Road",51.5226020218404,-0.017546952245709,"light_rail",1987
215,"Bow Church",51.52781,-0.021015441957904,"light_rail",1987
216,"Marshgate",51.534675254761,-0.013328739336728,"light_rail",1987
217,"1431",51.5001816565172,0.008750956150635,"people_mover",2012
218,"Royal Victoria",51.5078901674736,0.018059841793843,"people_mover",2012
219,"Beckton",51.5145618436955,0.061897247028327,"light_rail",1994
220,"Blackwall",51.5079079157077,-0.007414790755661,"light_rail",1994
221,"East India Dock",51.5094431082949,-0.002313989995059,"light_rail",1994
222,"Royal Victoria",51.5091748252332,0.017538421159742,"light_rail",1994
223,"Custom House",51.5096219616067,0.025991860912228,"light_rail",1994
224,"Prince Regent",51.509502725667,0.033080297658529,"light_rail",1994
225,"Royal Albert",51.5084146831311,0.04596400991386,"light_rail",1994
226,"South Beckton",51.5087127795142,0.054992187802497,"light_rail",1994
227,"Cyprus",51.5084295878405,0.063948522907822,"light_rail",1994
228,"Gallions Reach",51.5092107161118,0.071785894224178,"light_rail",1994
229," Epsom",51.3343938721477,-0.269387396673574,"inter_city_rail",1859
230,"1445",51.3628925903852,-0.248357565021081,"inter_city_rail",1932
231,"1446",51.3810989779228,-0.244783461914864,"inter_city_rail",1859
232,"1447",51.3947936188483,-0.239779716964449,"inter_city_rail",1925
233,"1448",51.3889587820995,-0.339114216545937,"inter_city_rail",1851
234,"1449",51.4021541498975,-0.342591454878914,"inter_city_rail",1849
235,"1450",51.3554947422977,-0.308927466220837,"inter_city_rail",1939
236,"1451",51.3638103996308,-0.300822837096433,"inter_city_rail",1939
237,"1452",51.3768548236715,-0.279558488222023,"inter_city_rail",1938
238,"1453",51.3842931651214,-0.262217224487159,"inter_city_rail",1938
239,"Whitton",51.4494426091917,-0.357813362404244,"inter_city_rail",1930
240,"Hounslow",51.4617800539946,-0.362422088908374,"inter_city_rail",1850
241,"Isleworth",51.4750571836325,-0.336473437739301,"inter_city_rail",1850
242,"Syor Lane",51.481821378296,-0.324619149791602,"inter_city_rail",1931
243,"Brentford",51.4875207380811,-0.309881993845693,"inter_city_rail",1849
244,"1459",51.4894872986862,-0.28708345557132,"inter_city_rail",1849
245,"1460",51.4811937452691,-0.26824756707029,"inter_city_rail",1849
246,"1461",51.4721323313088,-0.252888097992269,"inter_city_rail",1916
247,"Feltham",51.4479308098759,-0.409332077248024,"inter_city_rail",1848
248,"Cockfosters",51.6516883600515,-0.149549987282414,"heavy_rail",1933
249,"Ealing Broadway",51.5147297190611,-0.301720085261511,"commuter_rail|heavy_rail",1838
250,"Heathrow T5",51.4720569986015,-0.488483611711842,"commuter_rail",2008
251,"Heathrow T2/3",51.4712815757861,-0.452225314311013,"heavy_rail",1977
252,"Heathrow Terminal 4",51.4593794143831,-0.446658252993476,"commuter_rail|heavy_rail",1986
253,"Heathrow T5",51.4734289671692,-0.488303015913345,"heavy_rail",2008
254,"Hatton X",51.4667155945851,-0.423209861423921,"heavy_rail",1975
255,"St. John's Wood",51.5349178530442,-0.173757368082306,"heavy_rail",1939
256,"Swiss Cottage",51.5434724354397,-0.174679257354744,"heavy_rail",1939
257,"Finchley Road",51.5472939163675,-0.180961208892839,"heavy_rail",1879
258,"Manor House",51.5707965184976,-0.09594853691309,"heavy_rail",1932
259,"Turnpike Lane",51.590395016875,-0.102765385930396,"heavy_rail",1932
260,"Wood Green",51.5974298193785,-0.109736667038181,"heavy_rail",1932
261,"Bounds Green",51.6071180748102,-0.12429578249132,"heavy_rail",1932
262,"Arnos Grove",51.6163314898007,-0.133061256509487,"heavy_rail",1932
263,"Southgate",51.6323134326206,-0.127788932337434,"heavy_rail",1933
264,"Oakwood",51.6476073968913,-0.131764559421566,"heavy_rail",1933
265," Deptford",51.4789375791066,-0.02638479552391,"commuter_rail",1836
266,"Greenwich",51.4784582180973,-0.014436429142933,"commuter_rail",1838
267,"London Bridge",51.5045013956411,-0.084451232063023,"commuter_rail",1836
268,"South Ealing",51.5007026823477,-0.308290779194685,"heavy_rail",1935
269,"Northfields",51.4992780637606,-0.314578501760394,"heavy_rail",1933
270,"Boston Manor",51.495692404241,-0.324557775194847,"heavy_rail",1933
271,"Osterley",51.4812743434498,-0.352654161871129,"heavy_rail",1934
272,"Hounslow East",51.4735544460615,-0.356964585689894,"heavy_rail",1933
273,"Hounslow Central",51.4715831382725,-0.366984444426123,"heavy_rail",1933
274,"Hounslow West",51.4732848783576,-0.386342017205436,"heavy_rail",1933
275,"West Croydon",51.3783999218291,-0.102387754696342,"commuter_rail|inter_city_rail",1839
276,"Blackheath",51.4657603672809,0.008938857234276,"commuter_rail",1849
277,"Charlton",51.4868612502234,0.03172900019112,"commuter_rail",1849
278,"Maze Hill",51.4826015179466,0.003450340649778,"commuter_rail",1873
279,"Woolwich Dockyard",51.4910989441543,0.054972031535613,"commuter_rail",1849
280,"1644",51.4899199549224,0.069029007671247,"commuter_rail",1849
281,"Westcombe Park",51.4842498938832,0.019037821513109,"commuter_rail",1879
282,"Lewisham",51.4653346375789,-0.011560242337289,"commuter_rail",1849
283,"St. Johns",51.4690136800615,-0.022124801232479,"commuter_rail",1873
284,"New Cross",51.4764628726967,-0.032619848697011,"commuter_rail|heavy_rail",1850
285,"1650",51.4179820410503,-0.418226766392451,"inter_city_rail",1864
286,"1651",51.4210877956955,-0.40911395239138,"inter_city_rail",1878
287,"1652",51.415867363932,-0.372450770426411,"inter_city_rail",1864
288,"1653",51.4337068829689,-0.34982768011858,"inter_city_rail",1864
289,"Victoria",51.4954645819031,-0.144327200754924,"commuter_rail|inter_city_rail",1860
290,"Herne Hill",51.4537173801724,-0.102444449006748,"commuter_rail",1862
291,"Wandsworth Common",51.4472386394134,-0.164906174935226,"inter_city_rail",1856
292,"Balham",51.4429120046019,-0.151676123085196,"inter_city_rail",1856
293,"West Dulwich",51.4407166792152,-0.091280687068235,"commuter_rail",1863
294,"Battersea Park",51.4772228862295,-0.147423201654974,"commuter_rail|inter_city_rail",1867
295,"Crystal Palace",51.4182043771214,-0.072784140969789,"commuter_rail|inter_city_rail",1856
296,"Gipsy Hill",51.4244688386204,-0.083888423536138,"inter_city_rail",1856
297,"Streatham Hill",51.4382955540228,-0.127718493682352,"inter_city_rail",1856
298,"West Norwood",51.4316143919424,-0.103479485384753,"inter_city_rail",1856
299,"Woolwich Arsenal",51.4907847793407,0.069641660341574,"light_rail",2009
300,"South Bermondsey",51.4877567668773,-0.054480758990508,"inter_city_rail",1866
301,"North Woolwich",51.5021210671917,0.06034880793456,"light_rail",2005
302,"London City Airport",51.5040890657701,0.046017090335255,"light_rail",2005
303,"Silvertown",51.5021142246415,0.032560988434312,"light_rail",2005
304,"Dock Road",51.5027847695529,0.022316581784992,"light_rail",2005
305,"Sutton",51.3597905036455,-0.190852090801285,"commuter_rail|inter_city_rail",1847
306,"Ashtead",51.3179938423093,-0.307118989829063,"inter_city_rail",1858
307,"Leatherhead",51.2992034399789,-0.333009888673698,"inter_city_rail",1859
308,"Kings Cross",51.531037465727,-0.123481435060989,"commuter_rail",1852
309,"Finsbury Park",51.5647225975771,-0.106843906534163,"commuter_rail",1861
310,"Harringay",51.5774827060536,-0.105360004665869,"commuter_rail",1885
311,"Hornsey",51.5863895047229,-0.111675145412363,"commuter_rail",1850
312,"Alexandra Palace",51.5979596655963,-0.120357014679996,"commuter_rail",1859
313,"Essex Road",51.5405762826873,-0.096098743761218,"commuter_rail|heavy_rail",1904
314,"Highbury & Islington",51.5461129953726,-0.103906669614456,"commuter_rail",1904
315,"Drayton Park",51.5525276334712,-0.105488716779954,"commuter_rail|heavy_rail",1904
316,"Gospel Oak",51.5553114450086,-0.151141493376354,"commuter_rail",1860
317,"Battersea Power",51.4806179118856,-0.144338344012596,"heavy_rail",2020
318,"Nine Elms",51.4798588397676,-0.128432559794049,"heavy_rail",2020
319,"Mitcham Eastfields",51.4078419677322,-0.154496748772544,"commuter_rail|inter_city_rail",2008
320,"Mitcham Junction",51.3929047100727,-0.157687325438648,"commuter_rail|inter_city_rail",1868
321,"Hackbridge",51.3778829236176,-0.153786475367675,"commuter_rail|inter_city_rail",1868
322,"Carshalton",51.3685984013161,-0.16621905104291,"commuter_rail|inter_city_rail",1868
323,"Streatham Common",51.4186198335303,-0.136083831812385,"inter_city_rail",1862
324,"Norbury",51.4114077474979,-0.121758307902184,"inter_city_rail",1878
325,"Thornton Heath",51.3985463055282,-0.100142241958366,"inter_city_rail",1862
326,"Selhurst",51.392223188685,-0.088732484092162,"inter_city_rail",1865
327,"West Croydon",51.3789293265997,-0.101681740096463,"inter_city_rail|tram",1864
328,"Mitcham Junction",51.3926644396364,-0.157318599740561,"tram",1864
329,"Wimbledon",51.4205808635937,-0.205477067485646,"inter_city_rail|tram",1864
330,"Dundonald Road",51.4169830156639,-0.207930696543912,"inter_city_rail|tram",1864
331,"South Merton",51.4140591809659,-0.202073339213541,"inter_city_rail|tram",1864
332,"Morden Road",51.408661433344,-0.19284610353057,"inter_city_rail|tram",1864
333,"Morden Hall",51.4032905458817,-0.182235932244936,"inter_city_rail|tram",1864
334,"Ravensbury",51.4008831939847,-0.178389197513042,"tram",2000
335,"Mitcham",51.3975383277999,-0.170289352063861,"tram",2000
336,"Beddington Lane",51.3894497904094,-0.142882218971775,"tram",2000
337,"Therapia Lane",51.3856778377025,-0.129089702510419,"tram",2000
338,"Ampere Way",51.3823925865559,-0.123763822511502,"tram",2000
339,"Waddon Marsh",51.3770160775007,-0.117848381923446,"tram",2000
340,"Wandle Park",51.3734676917777,-0.113349117489926,"tram",2000
341,"Roman Way",51.3757673810441,-0.106925222493487,"tram",2000
342,"New Addington",51.3425230355746,-0.017227152136684,"tram",2000
343,"Elmers End",51.3982519516696,-0.049628753727444,"tram",2000
344,"Beckenham Junction",51.4106432241293,-0.025632193084107,"tram",2000
345,"Beckenham Junction",51.4110346951256,-0.025688592826754,"inter_city_rail",1858
346,"East Croydon",51.3750699224574,-0.092686969145917,"commuter_rail|inter_city_rail",1868
347,"East Croydon",51.3748523433425,-0.092641869332519,"tram",2000
348,"Lebanon Road",51.3751800698377,-0.085012561534171,"tram",2000
349,"Centrale",51.3753148171735,-0.097476649902603,"tram",2000
350,"Addiscombe Junction",51.3748358535257,-0.077725568503126,"tram",2000
351,"1877",51.5047146021766,-0.083859874077291,"commuter_rail",1878
352,"Charing Chross",51.5078741557863,-0.124220843754931,"commuter_rail",1864
353,"Waterloo East",51.504027796151,-0.109928686396472,"commuter_rail",1869
354,"Cannon Street",51.5105308442094,-0.090786777674168,"commuter_rail",1866
355,"Potters Bar",51.697115570744,-0.192573725074595,"commuter_rail",1850
356,"Hadley Wood",51.6686109176778,-0.176209759887826,"commuter_rail",1885
357,"New Barnet",51.6487581578737,-0.172808835737754,"commuter_rail",1850
358,"Oakleigh Park",51.6377101148045,-0.16617988537817,"commuter_rail",1873
359,"New Southgate",51.6140689439315,-0.14303815562991,"commuter_rail",1850
360,"Acton Main Line",51.5170531009979,-0.266915402595032,"commuter_rail",1868
361,"West Ealing",51.5135173490535,-0.320861729086804,"commuter_rail",1871
362,"Hanwell",51.5115284798774,-0.338244618855924,"commuter_rail",1838
363,"Southall",51.5060412622238,-0.377690139265894,"commuter_rail",1839
364,"Hayes & Harlington",51.503059982344,-0.420269648172296,"commuter_rail",1868
365,"1905",51.5098555126907,-0.472084190271834,"commuter_rail",1838
366,"Roding Valley",51.6173329901246,0.046815718633525,"commuter_rail|heavy_rail",1903
367,"Woodford",51.6073199723501,0.034402460820871,"commuter_rail|heavy_rail",1856
368,"Epping",51.6945237582709,0.115050366437714,"commuter_rail|heavy_rail",1865
369,"Newbury Park",51.5754629243499,0.090318158627184,"commuter_rail|heavy_rail",1903
370,"Loughton",51.641442536965,0.056024397707262,"commuter_rail|heavy_rail",1856
371,"Hammersmith",51.4935972919872,-0.224665351519064,"heavy_rail",1864
372,"Paddington",51.5187075092342,-0.178196991916025,"heavy_rail",1864
373,"Farringdon",51.5202283960032,-0.104792185972875,"commuter_rail|default|heavy_rail",1863
374,"Stanmore",51.6195169608628,-0.30309861799887,"heavy_rail",1932
375,"Moorgate",51.5184662537324,-0.08804151393622,"commuter_rail|default|heavy_rail",1865
376,"Barbican",51.5201234057335,-0.097597767120732,"heavy_rail",1865
377,"Kings Cross-St. Pancras",51.5304106880581,-0.12288201798164,"heavy_rail",1941
378,"Euston Square",51.5256163303794,-0.136011134058355,"heavy_rail",1863
379,"Great Portland Street",51.524010238937,-0.143872585918202,"heavy_rail",1863
380,"Baker Street",51.5223349503075,-0.156436919495891,"heavy_rail",1863
381,"Edgware Road",51.5199638990403,-0.167545113136316,"heavy_rail",1863
382,"Kensington High St.",51.5010097976497,-0.192712303271083,"heavy_rail",1868
383,"Notting Hill Gate",51.5090713944167,-0.196027665014356,"heavy_rail",1884
384,"Westbourne Park",51.5205920757137,-0.200907082431002,"heavy_rail",1864
385,"Ladbroke Grove",51.5173986189603,-0.210315876837626,"heavy_rail",1864
386,"Latimer Road",51.5132664016572,-0.218036491128629,"heavy_rail",1864
387,"Shepherd's Bush Market",51.5059924237155,-0.226297293337101,"heavy_rail",1864
388,"Goldhawk Road",51.50176473037,-0.226625139336019,"heavy_rail",1864
389,"Aldgate",51.5141742181206,-0.075807122921721,"heavy_rail",1876
390,"Liverpool Street",51.5174635846544,-0.081752901864816,"heavy_rail",1875
391,"Swiss Cottage",51.543347836749,-0.175083723217161,"heavy_rail",1868
392,"St. John's Wood",51.5360219440809,-0.176134117239963,"heavy_rail",1868
393,"2059",51.5294368075814,-0.168320145949551,"heavy_rail",1868
394,"Willesden Green",51.5491775908694,-0.221241104749786,"heavy_rail",1879
395,"Harrow-on-the-Hill",51.5792998122119,-0.33712306437863,"commuter_rail|heavy_rail",1880
396,"Sudbury Town",51.5507786078031,-0.315676525855838,"heavy_rail",1932
397,"South Tottenham",51.5804848716176,-0.071459830755993,"commuter_rail",1872
398,"Harryngay Green Lanes",51.5771484087795,-0.09797724763655,"commuter_rail",1880
399,"Crouch Hill",51.5712938893797,-0.117028988947055,"commuter_rail",1872
400,"Upper Holloway",51.5636315206895,-0.129524844098512,"commuter_rail",1872
401,"Blackhorse Road",51.5865748488039,-0.041172910924811,"commuter_rail",1894
402,"Walthmastow Queen's Road",51.5814699530199,-0.023658563211342,"commuter_rail",1894
403,"Leyton (Midland Road)",51.5693653953828,-0.00724165735366,"commuter_rail",1894
404,"Leytonstone High Road",51.5635137208212,0.008427469356207,"commuter_rail",1894
405,"Wanstead Park",51.5518089533989,0.025242147045659,"commuter_rail",1894
406,"Woodgrange Park",51.5491994881029,0.044276544651041,"commuter_rail",1894
407,"Leyton",51.5572207715271,-0.004518777510391,"commuter_rail|heavy_rail",1856
408,"Leytonstone",51.5680539977565,0.00796433685182,"commuter_rail|heavy_rail",1856
409,"Wanstead",51.5757351044528,0.028255928800149,"heavy_rail",1947
410,"Redbridge",51.5759040676478,0.045673782450905,"heavy_rail",1947
411,"Gants Hill",51.5764736564051,0.066499433040775,"heavy_rail",1947
412,"Barkingside",51.5862233957201,0.089142374902593,"commuter_rail|heavy_rail",1903
413,"Fairlop",51.5958944639497,0.091080960514859,"commuter_rail|heavy_rail",1903
414,"Hainault",51.6039176057021,0.093776917970786,"commuter_rail|heavy_rail",1903
415,"Grange Hill",51.6132675729263,0.091731050406821,"commuter_rail|heavy_rail",1903
416,"Chigwell",51.6179399153843,0.074695322588042,"commuter_rail|heavy_rail",1903
417,"South Woodford",51.5926404880309,0.027705029429882,"commuter_rail|heavy_rail",1856
418,"Snaresbrook",51.5809692161799,0.021493373169875,"commuter_rail|heavy_rail",1856
419,"Pinner",51.5929075931211,-0.381460334224556,"heavy_rail",1885
420,"Rickmansworth",51.6402414244559,-0.474326455885347,"commuter_rail|heavy_rail",1887
421,"Chesham",51.705026535378,-0.611026858091242,"heavy_rail",1889
422,"Watford",51.6572653257096,-0.417781827759818,"commuter_rail|heavy_rail",1925
423,"Uxbridge",51.5474102745596,-0.476182542467722,"heavy_rail",1904
424,"Queen's Park",51.5338868864797,-0.205712872734875,"commuter_rail|heavy_rail",1915
425,"Willesden Junction",51.532417693106,-0.244763411408728,"commuter_rail|heavy_rail",1915
426,"Warwick Avenue",51.5233138005728,-0.183703552490186,"heavy_rail",1915
427,"Maida Vale",51.5306613271156,-0.185131972508515,"heavy_rail",1915
428,"Kilburn Park",51.5347682852054,-0.193853054329878,"heavy_rail",1915
429,"Kensal Green",51.5304581563365,-0.225182854551591,"commuter_rail|heavy_rail",1916
430,"North Wembley",51.562327729347,-0.303367090318254,"commuter_rail|heavy_rail",1917
431,"Euston",51.5284015645359,-0.133773166027352,"commuter_rail",1837
432,"Liverpool Street",51.5178435602345,-0.08221222242859,"commuter_rail",2018
433,"Farringdon",51.5200109042493,-0.104673755101404,"commuter_rail",2018
434,"Tottenham Court Road",51.5153811880114,-0.130144284588937,"commuter_rail",2018
435,"Bond Street",51.5128283799373,-0.149324229766421,"commuter_rail",2018
436,"Paddington",51.5154996375838,-0.177769546822219,"commuter_rail",2018
437,"Canary Wharf",51.5059385098135,-0.016036094379672,"commuter_rail",2018
438,"South Harrow",51.5648389650704,-0.352481835153225,"heavy_rail",1932
439," Gravesend",51.4413463342047,0.366959524415279,"commuter_rail",1849
440,"Greenhithe for Bluewater",51.4503889228829,0.280601145565669,"commuter_rail",1849
441,"Dartford",51.4474515561701,0.219332706718859,"commuter_rail|inter_city_rail",1849
442,"Abbey Wood",51.4910564510015,0.121406739061626,"commuter_rail",1849
443," Erith",51.4815735173106,0.175222441720223,"commuter_rail",1849
444,"Slade Green",51.4676524095245,0.190334857682693,"commuter_rail",1900
445,"Belvedere",51.4921693386844,0.152239999690693,"commuter_rail",1859
446,"Plumstead",51.48976109673,0.084589919435075,"commuter_rail",1859
447,"Kidbrooke",51.4621118300203,0.02763682525125,"commuter_rail",1895
448,"Welling",51.4648508497759,0.101618337221964,"commuter_rail",1895
449,"Bexleyheath",51.4635251504756,0.133907310512626,"commuter_rail",1895
450,"Barnehurst",51.4649843808211,0.159579601744753,"commuter_rail",1895
451,"Eltham",51.4555469656443,0.052162276288925,"commuter_rail",1985
452,"Falconwood",51.4592342665434,0.079276746457424,"commuter_rail",1936
453,"2126",51.3177975322067,-0.558785044772236,"inter_city_rail",1838
454,"Chislehurst",51.4053561547689,0.057651132534444,"commuter_rail",1865
455,"Brixton",51.462892013997,-0.113328487227666,"commuter_rail",1862
456,"Golders Green",51.5721399048253,-0.194459133437448,"heavy_rail",1907
457,"Hampstead",51.5567175370385,-0.178258759417474,"heavy_rail",1907
458,"Belsize Park",51.550276573825,-0.164642043546905,"heavy_rail",1907
459,"Hendon Central",51.5833207257299,-0.226427253162623,"heavy_rail",1923
460,"Brent Cross",51.5766547415898,-0.213583581589375,"heavy_rail",1923
461,"Edgware",51.6139529065094,-0.275262580801287,"heavy_rail",1924
462,"Burnt Oak",51.6027999081574,-0.264013116383959,"heavy_rail",1924
463,"Colindale",51.5954417451233,-0.249969190298632,"heavy_rail",1924
464,"Woolwich Arsenal",51.4920842661451,0.070830044279717,"commuter_rail",2018
465,"Custom House",51.5098629805591,0.026777475509478,"commuter_rail",1847
466,"Archway",51.5654388277809,-0.134825357828277,"heavy_rail",1907
467,"Tufnell Park",51.5567608777066,-0.138046002991884,"heavy_rail",1907
468,"Kentish Town",51.551159886425,-0.140721644302711,"heavy_rail",1907
469,"East Finchley",51.5870219915749,-0.16467725401759,"commuter_rail|heavy_rail",1867
470,"High Barnet",51.6563136967482,-0.200862350012301,"commuter_rail|heavy_rail",1940
471,"Mill Hill East",51.608136560574,-0.209594870781292,"commuter_rail|heavy_rail",1867
472,"Highgate",51.5768960049675,-0.144740825403517,"commuter_rail|heavy_rail",1867
473,"Fincheley Central",51.6008896798214,-0.192601213886121,"commuter_rail|heavy_rail",1940
474,"West Finchley",51.6102240577626,-0.18805996456706,"commuter_rail|heavy_rail",1933
475,"Woodside Park",51.61805799801,-0.185471465862634,"commuter_rail|heavy_rail",1872
476,"Totteridge & Whetstone",51.6302813824923,-0.179215521036184,"commuter_rail|heavy_rail",1872
477,"Watford High Street",51.6525189460378,-0.392040604390076,"commuter_rail|heavy_rail",1912
478,"Watford Junction",51.6622640180816,-0.394172162534578,"commuter_rail|heavy_rail",1837
479,"2154",51.645536785093,-0.384929401221172,"commuter_rail",1841
480,"Bushey",51.6455350619339,-0.385220862907437,"commuter_rail|heavy_rail",1912
481,"Carpenders Park",51.6277579901181,-0.385213035312448,"commuter_rail|heavy_rail",1914
482,"Hatch End",51.6093486248757,-0.367970790896521,"commuter_rail|heavy_rail",1844
483,"Harrow & Wealdstone",51.5919607749568,-0.334308617550756,"commuter_rail|heavy_rail",1837
484,"North Ealing",51.517471525852,-0.28879389635993,"heavy_rail",1932
485,"Alperton",51.540536178043,-0.299493051074663,"heavy_rail",1932
486,"Park Royal",51.5269692214293,-0.284133752415248,"heavy_rail",1932
487,"Sudbury Hill",51.5569175842909,-0.336214168475389,"heavy_rail",1932
488,"Rayners Lane",51.5751812781311,-0.371252989774718,"heavy_rail",1933
489,"Eastcote",51.5765597526205,-0.397241986676593,"heavy_rail",1933
490,"Ruislip Manor",51.5731936104644,-0.412674251603822,"heavy_rail",1933
491,"Ruislip",51.5714086787032,-0.421311888617948,"heavy_rail",1933
492,"Ickenham",51.5620548768808,-0.441964254934212,"heavy_rail",1933
493,"Hillingdon",51.5537676058368,-0.449955316656496,"heavy_rail",1933
494,"Dollis Hill",51.5519214536954,-0.23905901376898,"heavy_rail",1979
495,"West Hampstead",51.546825749442,-0.190908774802243,"heavy_rail",1979
496,"Neasden",51.5540595637018,-0.249807682832119,"heavy_rail",1979
497,"Wembley Park",51.5635220736379,-0.27962042501204,"heavy_rail",1893
498,"Preston Road",51.5721237002844,-0.295356842150587,"heavy_rail",1908
499,"Northwick Park",51.5783502623822,-0.318359211753375,"heavy_rail",1923
500,"Stepney Green",51.5218069720156,-0.046340110864861,"heavy_rail",1902
501,"Bow Road",51.5265749523961,-0.024040734289599,"heavy_rail",1902
502,"Bromley-by-Bow",51.5247134506033,-0.011520701826612,"heavy_rail",1858
503,"West Ham",51.5286124246383,0.005909309186525,"commuter_rail|heavy_rail",1902
504,"Plaistow",51.5313067889832,0.017699958982149,"heavy_rail",1858
505,"Upton Park",51.5353497295297,0.035183161111007,"heavy_rail",1902
506,"East Ham",51.5389462878207,0.051411774270946,"commuter_rail|heavy_rail",1858
507,"Sevenoaks",51.2766791596291,0.181809165722166,"commuter_rail",1868
508,"Bickley",51.4001101460589,0.045284163073549,"commuter_rail",1858
509,"Bromley South",51.4000658299655,0.017452712807862,"commuter_rail",1858
510,"Shortlands",51.406001868024,0.002089152820401,"commuter_rail",1858
511,"Farningham Road",51.4016736361527,0.235493750349114,"commuter_rail",1860
512,"Swanley",51.3932986657969,0.168769306365946,"commuter_rail",1862
513,"St Mary Cray",51.3947644270694,0.106414762901647,"commuter_rail",1860
514," Bat & Ball",51.2898566388989,0.193893730826876,"commuter_rail",1862
515,"Denmark Hill",51.4680422296194,-0.089620932221023,"commuter_rail|inter_city_rail",1865
516,"Nunhead",51.4667911785674,-0.052341749950642,"commuter_rail|inter_city_rail",1871
517,"Tilbury Town",51.4624095481616,0.353950352645995,"commuter_rail",1854
518,"Grays",51.4763869429055,0.321853553968481,"commuter_rail",1854
519,"Upminster",51.5591111079285,0.247111730050205,"commuter_rail|default|heavy_rail",1885
520,"West Horndon",51.5678579750854,0.341413477378666,"commuter_rail",1886
521,"Pitsea",51.5602146621822,0.509843962463678,"commuter_rail",1855
522,"Stanford-Hope",51.5141922736211,0.422884682074624,"commuter_rail",1854
523,"Dagenham East",51.5439913982836,0.165206124285247,"commuter_rail|heavy_rail",1885
524,"Dagenham Heathway",51.5415744071485,0.147192583809836,"commuter_rail|heavy_rail",1932
525,"Becontree",51.5402944335344,0.127337361375368,"commuter_rail|heavy_rail",1926
526,"Upney",51.5382747888422,0.099793566830294,"commuter_rail|heavy_rail",1932
527,"Elm Park",51.5497919215086,0.199134832380244,"commuter_rail|heavy_rail",1935
528,"Hornchurch",51.554036441677,0.219191291904918,"commuter_rail|heavy_rail",1885
529,"Upminster Bridge",51.5583330062048,0.235460956665547,"heavy_rail",1934
530," Drayton Green",51.5165985960733,-0.330211204248128,"commuter_rail",1926
531,"Castle Bar Park",51.5227827040536,-0.331408174270393,"commuter_rail",1926
532,"South Greenford",51.5332700202822,-0.336379981504905,"commuter_rail",1926
533,"Emerson Park",51.5686519483067,0.22017416044875,"commuter_rail|default",2015
534,"2236",51.4735701906746,-0.098005855219697,"commuter_rail",1862
535,"2237",51.4865178339284,-0.096267903437052,"commuter_rail",1863
536,"Epsom Downs",51.3237006736262,-0.238889362326128,"inter_city_rail",1865
537,"Banstead",51.3293436959042,-0.21302567576603,"inter_city_rail",1865
538,"Belmont",51.3438813327607,-0.198848115698041,"inter_city_rail",1865
539,"Cheam",51.3557223843828,-0.214291867717634,"inter_city_rail",1847
540,"Ewell East",51.3451884664377,-0.241539103972635,"inter_city_rail",1847
541,"Carshalton Beeches",51.3572047949792,-0.169261971361323,"inter_city_rail",1906
542,"Wallington",51.360227875142,-0.150601724609885,"inter_city_rail",1847
543,"Waddon",51.367175268141,-0.117751005622409,"inter_city_rail",1863
544,"Wimbledon Chase",51.4093799253562,-0.214312935605164,"commuter_rail",1929
545,"South Merton",51.40330484334,-0.205547891569751,"commuter_rail",1929
546,"Morden South",51.3959738936246,-0.199359339954346,"commuter_rail",1930
547,"St Helier",51.38952185228,-0.198852300186673,"commuter_rail",1930
548,"Sutton Common",51.3752475774161,-0.196148254224292,"commuter_rail",1930
549,"West Sutton",51.3661863910262,-0.204547173090049,"commuter_rail",1930
550,"Sydenham Hill",51.4327032055362,-0.080240655606559,"commuter_rail",1863
551,"Penge East",51.4192916940359,-0.054193649014991,"commuter_rail",1863
552,"Kent House",51.4120603028108,-0.044503859070517,"commuter_rail",1863
553,"North Dulwich",51.4540326496226,-0.088577903906099,"inter_city_rail",1868
554,"East Dulwich",51.4615526323486,-0.080320594165443,"inter_city_rail",1868
555,"Honor Oak Park",51.4498320680328,-0.045639206725429,"commuter_rail|inter_city_rail",1886
556,"Forest Hill",51.4392693587224,-0.053039665210873,"commuter_rail|inter_city_rail",1839
557,"Beckenham Junction",51.4116993206619,-0.025276888172414,"commuter_rail",1868
558,"Birkbeck",51.4037192968686,-0.055854392321599,"inter_city_rail",1868
559,"Hither Green",51.4518481507926,-0.00061040164,"commuter_rail",1895
560,"Grove Park",51.4309979974477,0.021513179093013,"commuter_rail",1871
561,"Elmstead Woods",51.4168087124004,0.044345967985322,"commuter_rail",1904
562,"Petts Wood",51.3886837728335,0.074338839989461,"commuter_rail",1928
563,"2268",51.3735788963841,0.088826075257344,"commuter_rail",1868
564,"Chelsfield",51.3566177743145,0.10834452710003,"commuter_rail",1868
565,"Knockholt",51.3457459010465,0.130621035035972,"commuter_rail",1876
566,"Lee",51.4496960508642,0.014470008036596,"commuter_rail",1866
567,"Mottingham",51.4401228558158,0.05028651514823,"commuter_rail",1866
568,"New Eltham",51.4380331166204,0.070435438492439,"commuter_rail",1878
569," Sidcup",51.4339599828644,0.103831243854302,"commuter_rail",1866
570,"Albany Park",51.4353903984227,0.126075288353633,"commuter_rail",1935
571,"Bexley",51.4404053375024,0.14846410872363,"commuter_rail",1866
572,"Crayford",51.4482011439994,0.178245408278627,"commuter_rail",1866
573,"Catford",51.4441184951175,-0.026239119889794,"commuter_rail",1892
574,"Crofton Park",51.455074618171,-0.03630088247084,"commuter_rail",1892
575,"Bellingham",51.432937324305,-0.019331036152636,"commuter_rail",1892
576,"Beckenham Hill",51.4241782681619,-0.015552939639406,"commuter_rail",1892
577,"Ravensbourne",51.4142803127805,-0.007570894352256,"commuter_rail",1892
578,"Elmers End",51.3984903573082,-0.049188763969971,"commuter_rail",1864
579,"New Beckenham",51.4168265623589,-0.035181677826472,"commuter_rail",1857
580,"Lower Sydenham",51.4244794530619,-0.033346114996846,"commuter_rail",1857
581,"Catford Bridge",51.444583438763,-0.024817044184942,"commuter_rail",1857
582,"Ladywell",51.4561045062206,-0.019123465255859,"commuter_rail",1857
583,"Clock House",51.4086557217243,-0.040377264647333,"commuter_rail",1890
584,"Hayes",51.3764057652589,0.010226915439546,"commuter_rail",1882
585,"West Wickham",51.381189636212,-0.014243052291675,"commuter_rail",1882
586,"Eden Park",51.3900976180098,-0.026149913339566,"commuter_rail",1882
587,"Brockley",51.4646236054059,-0.037519599265735,"commuter_rail|inter_city_rail",2010
588,"Sydenham",51.4271831883578,-0.054465623878046,"commuter_rail|inter_city_rail",1839
589,"Penge West",51.4174914851418,-0.060643655423519,"commuter_rail",1839
590,"Anerley",51.4121849534039,-0.065856904545883,"commuter_rail",1839
591,"Norwood Junction",51.3971208914195,-0.074769528120243,"commuter_rail|inter_city_rail",1839
592,"Stratford International",51.5456862560727,-0.009309392375368,"heavy_rail|light_rail",2011
593,"Stratford High Street",51.5379009307446,-0.000505909287218,"light_rail",2011
594,"Abbey Road",51.5321897513328,0.003787655497664,"commuter_rail|light_rail",1846
595,"Star Lane",51.5207175790409,0.004213419701562,"light_rail",2011
596,"South Croydon",51.3628686895154,-0.093383659218827,"commuter_rail|inter_city_rail",1865
597,"Purley Oaks",51.3469092285923,-0.098830940574201,"inter_city_rail",1899
598,"Purley",51.3375293832246,-0.11402718671837,"commuter_rail|inter_city_rail",1858
599,"Amersham",51.6740359889304,-0.607887134242674,"commuter_rail|heavy_rail",1892
600,"Romford",51.5749650659562,0.183535048242685,"commuter_rail|default",1839
601,"Devonshire Street",51.5261141421498,-0.047750080534657,"commuter_rail",1839
602,"Bishopsgate",51.5223017022305,-0.07623,"commuter_rail",1840
603,"Liverpool Street",51.5179024689162,-0.081957524502424,"commuter_rail",1875
604,"Brentwood",51.6136187043872,0.299178705631846,"commuter_rail|heavy_rail",1840
605,"Tottenham Hale",51.5884201879663,-0.059873751189881,"commuter_rail",1840
606,"2322",51.6853580979063,-0.02644975292813,"commuter_rail",1840
607,"2323",51.532208762767,-0.057477036421602,"commuter_rail",1872
608,"Bethnal Green",51.5237614462329,-0.059674073448057,"commuter_rail",1872
609,"2325",51.5410504813459,-0.057758933344161,"commuter_rail",1872
610,"Hackney Downs",51.5485433470144,-0.060486517365376,"commuter_rail",1872
611,"Hackney Central",51.5470569538572,-0.057033960350111,"commuter_rail",1850
612,"2328",51.5616461323085,-0.056919279907504,"commuter_rail",1872
613,"Lea Bridge Road",51.5666172688902,-0.036983822412793,"commuter_rail",1840
614,"Maryland",51.5460354003707,0.005919220207981,"commuter_rail",1873
615,"Forest Gate",51.5495208778295,0.024612264974534,"commuter_rail",1840
616,"Manor Park",51.5525417193685,0.046465635599554,"commuter_rail",1873
617,"Ilford",51.5590656888504,0.069233096330657,"commuter_rail",1839
618,"Seven Kings",51.5639218287003,0.097189336300966,"commuter_rail",1899
619,"Goodmayes",51.5655051808052,0.110713456680264,"commuter_rail",1901
620,"Chadwell Heath",51.5680293731298,0.129597258564849,"commuter_rail",1864
621,"Dalston Kingsland",51.5481737064527,-0.075651853525605,"commuter_rail",1850
622,"Cheshunt",51.7026668939672,-0.023898577374264,"commuter_rail",1846
623,"2340",51.670794765219,-0.028614340499843,"commuter_rail",1855
624,"2341",51.6555521884355,-0.030946139346042,"commuter_rail",1884
625,"Ponders End",51.6428252863484,-0.034928862255384,"commuter_rail",1840
626,"Angel Road",51.6126938676879,-0.049168695853496,"commuter_rail",1840
627,"2344",51.6024454197386,-0.053832293562294,"commuter_rail",1842
628,"2346",51.6529119807689,-0.092968954323567,"commuter_rail",1871
629,"2347",51.6527144640466,-0.090921990408305,"commuter_rail",1910
630,"2348",51.6447936190324,-0.096398182746697,"commuter_rail",1910
631,"2349",51.6339391420582,-0.101116516609068,"commuter_rail",1871
632,"2350",51.618292558117,-0.110543965721916,"commuter_rail",1871
633,"Bowes Park",51.6071476608288,-0.120444291077627,"commuter_rail",1880
634,"2352",51.6631244479456,-0.094164646962298,"commuter_rail",1910
635,"2353",51.6847276966704,-0.107340616639561,"commuter_rail",1910
636,"Rectory Road",51.5586209282289,-0.068315183974249,"commuter_rail",1872
637,"Stoke Newington",51.5650884162162,-0.072567691665228,"commuter_rail",1872
638,"Stamford Hill",51.5744170521182,-0.076595025822769,"commuter_rail",1872
639,"Seven Sisters",51.5824642001209,-0.075196435762338,"commuter_rail",1872
640,"2367",51.5937157138556,-0.070000565964051,"commuter_rail",1872
641,"Bruce Grove",51.5937209489587,-0.070084835386325,"commuter_rail",1872
642,"White Hart Lane",51.6044725549871,-0.070837176632836,"commuter_rail",1872
643,"2370",51.6044550596674,-0.070949852191632,"commuter_rail",2015
644,"Shenfield",51.631116264187,0.330841092469226,"commuter_rail",1843
645,"Harold Wood",51.5927189149132,0.232939684529114,"commuter_rail",1868
646,"Gidea Park",51.581725997231,0.205564164070492,"commuter_rail",1910
647,"Chingford",51.6331185074443,0.009995473059718,"commuter_rail",1873
648,"St. James Street",51.5809730278457,-0.032711133187973,"commuter_rail",1870
649,"Walthmastow Central (Hoe Street)",51.5829126471514,-0.019832242038667,"commuter_rail|heavy_rail",1870
650,"Wood Street",51.5865817822435,-0.002410647544878,"commuter_rail",1873
651,"Highams Park",51.6091900291023,-8.3618710079e-05,"commuter_rail",1873
652,"Edmonton",51.6248139092353,-0.061258564851144,"commuter_rail",1872
653,"Southbury",51.6479221060582,-0.05256801299771,"commuter_rail",1891
654,"Turkey Street",51.6724660235141,-0.047170810266721,"commuter_rail",2015
655,"Theobalds Grove",51.6920042415584,-0.035186575038495,"commuter_rail",1960
656,"Marylebone",51.5224999897768,-0.163047915132112,"commuter_rail",1898
657,"Buckhurst Hill",51.6265443727915,0.046839937344686,"commuter_rail|heavy_rail",1856
658,"Debden",51.6451832411707,0.085369060475983,"heavy_rail",1865
659,"Theydon Bois",51.6711337340504,0.103030891223938,"heavy_rail",1865
660,"Shepperton",51.3961253166868,-0.448438805620668,"inter_city_rail",1864
661,"2448",51.4132179193336,-0.430775451772462,"inter_city_rail",1944
662,"2449",51.5574657822423,-0.359392547460175,"commuter_rail",1926
663,"Sudbury Hill Harrow",51.5585368261318,-0.336026375793886,"commuter_rail",1906
664,"Sudbury & Harrow Road",51.5541228205604,-0.315411723009191,"commuter_rail",1906
665,"Wembley Stadium",51.5542473629413,-0.28536095173186,"commuter_rail",1906
666,"South Ruislip",51.5570387527026,-0.398553079677195,"commuter_rail|heavy_rail",1908
667,"Dagenham Dock",51.5258924961714,0.146195842653299,"commuter_rail",1908
668,"Rainham",51.5166726687988,0.190587974120888,"commuter_rail",1854
669,"Purfleet",51.4810870615151,0.23701818287816,"commuter_rail",1854
670,"2473",51.3993512034764,0.01740891056275,"commuter_rail",1892
671,"Ockendon",51.5216512864877,0.290224783838568,"commuter_rail",1892
672,"Chafford Hundred",51.4855559162403,0.287355754496303,"commuter_rail",1995
673,"Canons Park",51.6076236551325,-0.294625590259377,"heavy_rail",1932
674,"Queensbury",51.5941095150172,-0.286125845755208,"heavy_rail",1932
675,"Kingsbury",51.5849030126585,-0.278466733711809,"heavy_rail",1932
676,"Bromley North",51.408549999213,0.017183422684468,"commuter_rail",1878
677,"Sundrigde Park",51.4137859267223,0.021380712047488,"commuter_rail",1878
678,"Addiscombe",51.3798650094125,-0.073936948629751,"tram",2000
679,"Blackhorse Lane",51.3849064253633,-0.070484003808218,"tram",2000
680,"Spring Lane",51.3872578738244,-0.065753166683351,"tram",1996
681,"South Norwood",51.3913509991116,-0.058473627023204,"tram",2000
682,"Norwood",51.3996961305943,-0.060456051062223,"tram",2000
683,"Birkbeck",51.4033700965384,-0.056492772926306,"tram",2000
684,"South Penge",51.4067669523901,-0.048896568200462,"tram",2000
685,"Beckenham",51.4093992357879,-0.042935402659481,"tram",2000
686,"Stratford International",51.544914593597,-0.008601391939408,"high_speed_rail",2007
687,"St. Pancras",51.5306337035463,-0.125421416464862,"commuter_rail|high_speed_rail",1868
688,"2679",51.4428363344296,0.320828995860921,"high_speed_rail",2007
689,"2687",51.2947696865231,-0.210992040472149,"inter_city_rail",1897
690,"2688",51.3091091791597,-0.242376977212103,"inter_city_rail",1901
691," Coulsdon Town",51.3220416448214,-0.134420867617542,"inter_city_rail",1904
692,"Lloyd Park",51.36421334452,-0.080397140081715,"tram",2000
693,"Coombe Lane",51.3597260263788,-0.059809092055502,"tram",2000
694,"2692",51.2912514400436,-0.235776138104939,"inter_city_rail",1901
695,"2693",51.3093240670964,-0.169425897978101,"inter_city_rail",1899
696,"Forestdale",51.3546289221681,-0.042963728652836,"tram",2000
697,"Addington",51.356780947681,-0.031847477169293,"tram",2000
698,"Headley Drive",51.3506976261329,-0.024233558550179,"tram",2000
699,"Rowdown",51.3452660301936,-0.020172044265109,"tram",2000
700,"3192",51.5649422547903,-0.351830231536923,"heavy_rail",1903
701,"North Harrow",51.5848665978322,-0.362766426908877,"heavy_rail",1915
702,"Northwood Hills",51.6002243276579,-0.408979082966169,"heavy_rail",1933
703,"Northwood",51.6112417969249,-0.424031710952249,"heavy_rail",1887
704,"Slough",51.5120967458568,-0.591331215824035,"commuter_rail",2019
705,"Staines",51.4321587536865,-0.499408715892884,"inter_city_rail",0
706,"Mudchute",51.4913821642417,-0.014976059702536,"light_rail",1987
707,"London Colney",51.7284669952497,-0.320050401528818,"commuter_rail",1868
708,"Bulbourne",51.8186013797825,-0.642609494554563,"commuter_rail",1837
709,"Beaconsfield",51.6115394916807,-0.653831983149814,"commuter_rail",1906
710,"Pirbright",51.3025794866192,-0.65437873464478,"inter_city_rail",1838
711,"Stoughton",51.2517503197561,-0.583888221084777,"inter_city_rail",1845
712,"Clandon",51.2641289081132,-0.501730576726317,"inter_city_rail",1885
713,"Box Hill & Westhumble",51.2538318751219,-0.328622800502962,"inter_city_rail",1859
714," Merstham",51.2641464634578,-0.150025114811335,"commuter_rail|inter_city_rail",1844
715,"Hildenborough",51.214296262545,0.228640822079427,"commuter_rail",1868
716,"Sundridge Hill",51.385505610752,0.481842244838987,"inter_city_rail",1860
717,"Lower Higham",51.4255464342704,0.467832135765462,"commuter_rail",1849
718,"Benfleet",51.5442670989896,0.561452273618102,"commuter_rail",1855
719,"Broxbourne",51.7468567786846,-0.011035902979643,"commuter_rail",1840
720,"Cuffley",51.7094507876432,-0.110038604005467,"commuter_rail",1910
721,"Broad Street",51.5181071449717,-0.083090502501847,"commuter_rail",1865
722,"Baker Street",51.5232855920736,-0.156979047897617,"commuter_rail|heavy_rail",1868
723,"West Brompton",51.4873038420906,-0.1960252099,"commuter_rail|inter_city_rail",1863
724,"Brondesbury Park",51.5407790817138,-0.210041160569319,"commuter_rail",1908
725,"Brondesbury",51.5452176088997,-0.202159734814072,"commuter_rail",1860
726,"Kensal Rise",51.5345759381409,-0.219805800246532,"commuter_rail",1873
727,"Kentish Town West",51.5468274228241,-0.146729990206665,"commuter_rail",1981
728,"Camden Road",51.5418723416454,-0.138794328972479,"commuter_rail",1850
729,"Canonbury",51.5487605385026,-0.092125645712016,"commuter_rail",1850
730,"Holborn Viaduct",51.5165774558676,-0.103998860821676,"commuter_rail",1916
731,"Ludgate Hill",51.5140356880604,-0.103644299786538,,1856
732,"Farringdon",51.5201772608992,-0.105020554442774,"commuter_rail",1866
733,"Shoreditch",51.5268953299369,-0.078695960335267,"commuter_rail",1865
734,"Homerton",51.5470481301937,-0.042199865115236,"commuter_rail",1868
735,"Caledonian Road & Barnsbury ",51.5434638037811,-0.115021986287587,"commuter_rail",1852
736,"Leman St.",51.5110556761648,-0.068575854496885,"commuter_rail",1840
737,"Burdett Road",51.5185791119761,-0.030449825751475,"commuter_rail",1871
738,"Shoeburyness",51.5309358209729,0.795859060694812,"commuter_rail",1888
739,"Southend Central",51.5373821727475,0.711798821212455,"commuter_rail",1856
740,"Aldwych",51.512104922367,-0.115571846490098,"heavy_rail",1907
741,"Minories",51.5107273575627,-0.074432418350028,"commuter_rail",1840
742,"Limehouse",51.5126282430838,-0.039620527570861,"commuter_rail",1854
743,"Tilbury Riverside",51.4519724518611,0.364853963808684,"commuter_rail",1854
744,"East Tilbury",51.4845355843859,0.41276555347352,"commuter_rail",1936
745,"Southend Victoria",51.5416181136302,0.711654291259916,"commuter_rail",1889
746,"Wickford",51.6147793285074,0.519235808343183,"commuter_rail",1889
747,"Prittlewell",51.5505736770707,0.710664939110899,"commuter_rail",1889
748,"Southend Airport",51.5696333136374,0.705334222170535,"commuter_rail",2011
749,"Rochford",51.5815922726624,0.702062040638907,"commuter_rail",1889
750,"Rayleigh",51.5894543955029,0.600219515699308,"commuter_rail",1889
751,"Hockley",51.6036367061721,0.659274579423283,,
752,"Billericay",51.6287409391614,0.418558056862992,"commuter_rail",1889
753,"Ongar",51.7088184990299,0.244343205192223,"heavy_rail",1865
754,"North Weald",51.7114091394359,0.162686757979316,"heavy_rail",1865
755,"Aylesbury",51.81366,-0.814931288670348,"commuter_rail|heavy_rail",1863
756,"Aylesbury Vale Parkway",51.8314694428668,-0.860205044896986,"commuter_rail",2008
757,"Charing Cross",51.5082732918226,-0.125246932290395,"heavy_rail",1906
758,"West Hampstead",51.5474920524805,-0.191195012916459,"commuter_rail",1860
759,"Finchley Road & Frognal",51.5502468735664,-0.183153756276119,"commuter_rail",1860
760,"24282",51.5412028008366,-0.179057666402599,,
761,"Luton",51.8825606205389,-0.414600445014742,"commuter_rail",1868
762,"Bedford",52.1362056712837,-0.479533243267895,"commuter_rail",1868
763,"Luton Airport Parkway",51.8730436194853,-0.39634149841487,"commuter_rail",1999
764,"Brighton",50.8288656249054,-0.140968563863481,,
765,"Uxbridge Road",51.5058609130469,-0.217908331846388,"heavy_rail|inter_city_rail",1869
766,"White City",51.5089933807366,-0.225122258401001,"heavy_rail",1908
767,"Wood Lane",51.5098475895585,-0.224072555144275,"heavy_rail",2008
768,"Wood Line",51.5087330645751,-0.224036205562754,"heavy_rail",1920
769,"Shepherd's Bush",51.5034264010373,-0.226737722533358,"heavy_rail",1864
770,"Shepherd's Bush",51.5023200508229,-0.222478362268362,,1869
771,"St. Albans Abbey",51.7447650256305,-0.34269911941314,"commuter_rail",1858
772,"St. Albans (London Road)",51.7451051303605,-0.327579200077167,"commuter_rail",1865
773,"Hatfield",51.765882632257,-0.215669332977086,"commuter_rail",1850
774,"Enfield Town",51.6519085176891,-0.079025863661684,"commuter_rail",1849
775,"Edgware",51.6123352914219,-0.276470254469132,"commuter_rail",1867
776,"Mill Hill (The Hale)",51.6116115818428,-0.249464875379857,"commuter_rail",1906
777,"Crouch End",51.57471,-0.126962664178895,"commuter_rail",1867
778,"Stroud Green",51.5733630967748,-0.112613467510528,"commuter_rail",1867
779,"Primrose Hill",51.5430428817654,-0.154404668008816,"commuter_rail",1855
780,"Croxley Green",51.6510487440313,-0.429261695499605,"commuter_rail|heavy_rail",1912
781,"Watford West",51.6483980847854,-0.413805464871558,"commuter_rail|heavy_rail",1912
782,"Rickmansworth (Church Street)",51.6371587280773,-0.464498173676105,"commuter_rail",1862
783,"St. Albans City",51.7504500271789,-0.327516278099665,"commuter_rail",1868
784,"Stevenage",51.9015520543696,-0.206930000000057,"commuter_rail",1973
785,"Hertford East",51.7992936880578,-0.072544546529826,"commuter_rail",1843
786,"Ware",51.8081558035451,-0.029203534682324,"commuter_rail",1843
787,"St Margarets",51.7874751819181,0.001419601664111,"commuter_rail",1843
788,"Rye House",51.7692949447931,0.00572470059484,"commuter_rail",1843
789,"Roydon",51.7755726139433,0.035662747100019,"commuter_rail",1844
790,"Harlow Town",51.7813040470841,0.09440245379011,"commuter_rail",1842
791,"Harlow Mill",51.7906834684387,0.132734874777014,"commuter_rail",1842
792,"Hertford North",51.7992928441434,-0.092090519865053,"commuter_rail",1924
793,"Bayford",51.7577073085278,-0.095742611725484,"commuter_rail",1924
794,"Watton-at-Stone ",51.8565885029865,-0.119168572014692,"commuter_rail",1924
795,"Stevenage",51.9175633086197,-0.216250293892017,"commuter_rail",1850
796,"Stratford Westfield",51.5415737252553,-0.008768400253616,"light_rail",2011
797,"Watford Central",51.6536190755503,-0.396367589499278,"heavy_rail",1927
798,"Clapgate",51.6818723474052,0.279574914154665,"heavy_rail",2012
799,"Crow Green",51.6486239516839,0.296810153175329,"heavy_rail",2012
800,"Vaterland War",51.371299278155,-0.13965024685038,"heavy_rail|inter_city_rail",1813
801,"Harlesden",51.5361573703663,-0.257345975023242,"commuter_rail|heavy_rail",1912
802,"Stonebridge Park",51.5439039366792,-0.275703776448353,"commuter_rail|heavy_rail",1912
803,"Wembley Central",51.551988917012,-0.296455274281698,"commuter_rail|heavy_rail|inter_city_rail",1842
804,"South Kenton",51.57018668263,-0.308443543365769,"commuter_rail|heavy_rail",1933
805,"Kenton",51.581845056029,-0.317009257892494,"commuter_rail|heavy_rail",1912
806,"Royal Oak",51.5189589759696,-0.188667192353694,"heavy_rail",1871
807,"Kilburn",51.5469165175654,-0.204265076447115,"heavy_rail",1879
808,"Chorleywood",51.6541884773712,-0.518388237366196,"commuter_rail|heavy_rail",1889
809,"West Harrow",51.5796613303027,-0.352890363244569,"heavy_rail",1913
810,"Hampstead Heath",51.5551439932443,-0.165819189462096,"commuter_rail",2007
811,"Covent Garden",51.5130460205098,-0.124240237281896,"heavy_rail",1907
812,"Hackney Wick",51.5434370905673,-0.024130603771653,"commuter_rail",1980
813,"Barking Riverside",51.5194334083481,0.115977871408518,"commuter_rail",2022
814,"Marylebone",51.5211867698314,-0.162667941895592,"heavy_rail",2021
815,"Great Missenden",51.7034128399007,-0.709270873022632,"commuter_rail",1863
816,"Wendover",51.76166850467,-0.747441620142666,"commuter_rail",1863
817,"Stoke Mandeville",51.787791401028,-0.78422256054057,"commuter_rail",1863
818,"Stone Crossing",51.4513919703057,0.264500398724152,"commuter_rail",1849
819,"Swanscombe",51.4491417786649,0.309592619930243,"commuter_rail",1849
820," Northfleet",51.4457923027334,0.324299683123229,"commuter_rail",1849
821," Heathrow Terminals 2 & 3",51.4725161281885,-0.454440331659697,"commuter_rail",2022
822," Iver",51.5085998226734,-0.506405618122102,"commuter_rail",1838
823,"Langley",51.5078581126886,-0.541825464234222,"commuter_rail",1838
824,"Burnham",51.5233508754262,-0.646553871601412,"commuter_rail",1838
825,"Taplow",51.5233808318028,-0.681399937484883,"commuter_rail",1838
826,"Maidenhead",51.5184527509965,-0.722701807451898,"commuter_rail",1838
827,"Twyford",51.4754618794417,-0.862872514575783,"commuter_rail",1838
828,"Reading",51.4591623359298,-0.971689155416556,"commuter_rail|inter_city_rail",1838
829,"Bookham",51.2888277071821,-0.38395070933106,"inter_city_rail",1885
830,"Coulsdon South",51.3157613400984,-0.137816296309836,"commuter_rail|inter_city_rail",1889
831,"Eynsford",51.3627179963272,0.204288995495403,"commuter_rail",1862
832,"Shoreham",51.3320970556667,0.188775637774654,"commuter_rail",1862
833,"Otford",51.3130614256805,0.197077886191835,"commuter_rail",1862
834,"Shern Hall Street",51.5849983231834,-0.00789582526906,"commuter_rail",1870
835,"Clapham Junction",51.4640468331249,-0.170218563870838,"inter_city_rail",1838
836,"St. Ann's Road",51.5794267084436,-0.081314519061777,"commuter_rail",1882
837,"Hornsey Road",51.5680414108589,-0.123626133307539,"commuter_rail",1872
838,"Junction Road",51.5588886980643,-0.137194748777347,"commuter_rail",1872
839,"Highgate Road",51.5561334481765,-0.145180148705435,"commuter_rail",1872
840,"Radlett",51.6853744123457,-0.31715641329447,"commuter_rail",1868
841,"Harpender",51.8147575286117,-0.351466566973954,"commuter_rail",1868
842,"Chiltern Green",51.8506443987296,-0.370070529521854,"commuter_rail",1868
843,"Welwyn Garden city",51.800945964902,-0.203931729066142,"commuter_rail",1926
844,"Kings Cross St. Pancras",51.53072858799,-0.123465388219472,"heavy_rail",1907
845,"Victoria Park",51.5433515521499,-0.028462401422127,"commuter_rail",1856
846,"Old Ford",51.5361283009107,-0.0253112393045,"commuter_rail",1867
847,"Bow",51.5285449330339,-0.021439167625352,"commuter_rail",1850
848,"South Bromley",51.5167515268083,-0.014593467324744,"commuter_rail",1884
849,"Poplar (East India Road)",51.5110390913314,-0.013066748450228,"commuter_rail",1850
850,"Highbury & Islington",51.5463676355276,-0.103421202750525,"heavy_rail",1863
851,"Stratford High Street",51.5377468359059,-0.000262100471474,"commuter_rail",1847
852,"North Woolwich",51.4990693772976,0.063194668606595,"commuter_rail",1847
853,"Silvertown",51.5031608612821,0.042930141642922,"commuter_rail",1847
854,"Tidal Basin",51.5090433195956,0.014820613529025,"commuter_rail",1858
855,"Southend East",51.5388990511685,0.731894049940136,"commuter_rail",1932
856,"Thorpe Bay",51.5376453929318,0.761983207111712,"commuter_rail",1910
857,"Westcliff",51.5373979028404,0.691736464238971,"commuter_rail",1895
858,"Chalkwell",51.5385230413258,0.670481702335422,"commuter_rail",1933
859,"Leigh-on-sea",51.5412806953464,0.639816676750172,"commuter_rail",1855
860,"Basildon",51.5681497644742,0.456910259056912,"commuter_rail",1974
861,"Laindon",51.56766243642,0.423230828794942,"commuter_rail",1888
862,"Coborn Road",51.5290307952839,-0.032047917224247,"commuter_rail",1865
863,"Globe Road & Devonshire Street",51.5256572561664,-0.049163233721544,"commuter_rail",1884
864,"Fenchurch Street",51.5115408614991,-0.078815910747466,"commuter_rail",1841
865,"West India Docks",51.508610686841,-0.024165823943207,"commuter_rail",1840
866,"Millwall Junction",51.5071923763771,-0.014109862496,"commuter_rail",1871
867,"Poplar",51.5076543638853,-0.006483376881476,"commuter_rail",1840
868,"Blackwall",51.5082357610917,0.000532383775351,"commuter_rail",1840
869,"Bush Hill Park",51.6418472829848,-0.069501504115237,"commuter_rail",1880
870,"Silver Street",51.6149796113151,-0.06697286643012,"commuter_rail",1872
871,"Edmonton",51.6247569294019,-0.061016478156716,"commuter_rail",1849
872,"Meridian Water",51.6105936956548,-0.050032886233396,"commuter_rail",2019
873,"North Greenwich",51.4865509616415,-0.009302747606796,"commuter_rail",1872
874,"Millwall Dock",51.4957630154577,-0.014413905765093,"commuter_rail",1871
875,"South Dock",51.5031082839588,-0.013111166232932,"commuter_rail",1871
876,"Crossharbour",51.4957657834925,-0.014466123153767,"light_rail",1987
877,"Island Gardens",51.4866657526034,-0.009319888763201,"light_rail",1987
878,"West Green",51.586718855031,-0.088449635036966,"commuter_rail",1878
879,"Noel Park and Wood Green",51.5952094954678,-0.107486458848178,"commuter_rail",1878
880,"Palace Gates",51.5996298620776,-0.119021301174314,"commuter_rail",1878
881,"Brookmans Park",51.7205862064847,-0.204777178170276,"commuter_rail",1926
882,"Welham Green",51.7363953919415,-0.210589912334228,"commuter_rail",1986
883,"Welwyn North",51.8235012844854,-0.191860942410585,"commuter_rail",1850
884,"Knebworth",51.8670523074419,-0.186892816522942,"commuter_rail",1884
885,"Hitchin",51.9531568358709,-0.263039783172331,"commuter_rail",1850
886,"/Peterborough",52.5745399805953,-0.25037921288623,"commuter_rail",1850
887,"Letchworth Garden City",51.9803092216531,-0.229250823353652,"commuter_rail",1913
888,"Baldock",51.993017901423,-0.187399669025979,"commuter_rail",1850
889,"Ashwell & Morden",52.0306821508887,-0.109729715198796,"commuter_rail",1850
890,"Royston",52.053142655279,-0.027488858271084,"commuter_rail",1850
891,"Meldreth",52.0907054305099,0.009447333795578,"commuter_rail",1851
892,"Shepreth",52.114428406118,0.031185622816594,"commuter_rail",1851
893,"Foxton",52.1192744359212,0.056697758738835,"commuter_rail",1852
894,"Harston",52.1336862043987,0.085536721870113,"commuter_rail",1852
895,"Cambridge",52.1940738033827,0.137664505469587,"commuter_rail",1845
896,"Finsbury Park",51.5646922699358,-0.106482062976454,"commuter_rail|heavy_rail",1904
897,"Dunton Green",51.2963377616322,0.171237647214781,"commuter_rail",1868
898,"Kenley",51.3247976823402,-0.10092078741306,"inter_city_rail",1921
899,"Whyteleafe",51.310125500161,-0.081049034673327,"inter_city_rail",1921
900,"Whyteleafe South",51.3034960322995,-0.076983976514754,"inter_city_rail",1921
901,"Caterham",51.2821004869016,-0.078303420030323,"inter_city_rail",1921
902,"Sanderstead",51.3482820362351,-0.093500316563961,"commuter_rail|inter_city_rail",1884
903,"Riddlesdown",51.3324700085452,-0.09941161078109,"commuter_rail|inter_city_rail",1927
904,"Upper Warlingham",51.3085929633628,-0.077832612121966,"commuter_rail",1884
905,"Woldingham",51.2900184451476,-0.051856648777147,"commuter_rail|inter_city_rail",1885
906,"Oxted",51.257924964815,-0.004656716076312,"commuter_rail|inter_city_rail",1884
907,"Hurst Green",51.2443762177184,0.004172222936944,"commuter_rail|inter_city_rail",1961
908,"Wargrave",51.4986184510558,-0.876726747493564,"commuter_rail",1900
909," Shiplake",51.5111951894681,-0.882328464936734,"commuter_rail",1857
910,"Henley-on-Thames",51.534337799465,-0.900244282328803,"commuter_rail",1857
911,"Furze Platt",51.5328317259593,-0.728463534174637,"commuter_rail",1937
912,"Cookham",51.5574658328314,-0.72221079406674,"commuter_rail",1854
913,"Bourne End",51.5770523317911,-0.710441416877899,"commuter_rail",1854
914,"Marlow",51.5711184556066,-0.76668194507144,"commuter_rail",1873
915,"Windsor & Eton Central",51.4830979421445,-0.609719416400253,"commuter_rail",1849
