"nodeID","nodeLabel","latitude","longitude","mode","year"
1,"El Caminero

",19.2794263291215,-99.169029391805,"brt",2008
2,"La Joya

",19.2803118935548,-99.1700184853613,"brt",2008
3,"Santa Úrsula

",19.2832896627045,-99.1753248494396,"brt",2008
4,"Fuentes Brotantes

",19.2882169554592,-99.1745381623582,"brt",2008
5,"Ayuntamiento

",19.2925888663621,-99.1776317014734,"brt",2008
6,"Corregidora

",19.2940385911916,-99.1810196413245,"brt",2008
7,"Villa Olímpica

",19.2991137172143,-99.1855283426333,"brt",2008
8,"Perisur

",19.3044771452876,-99.1861902696763,"brt",2008
9,"Centro Cultural Universitario

",19.3146650220834,-99.1874804357963,"brt",2008
10,"Ciudad Universitaria

",19.3229716550336,-99.188502576399,"brt",2008
11,"Dr. Gálvez

",19.3406375559841,-99.1900876141569,"brt",2005
12,"Canal de San Juan",19.3967746803955,-99.0565109313296,"brt",2008
13,"Nicolás Bravo",19.3935293010513,-99.050903268582,"brt",2008
14,"Tepalcates",19.3908072188444,-99.0474373063985,"brt",2008
15,"General Antonio de León",19.3853954086203,-99.0517000542463,"brt",2008
16,"Constitución de Apatzingán",19.3890545708631,-99.0598324408773,"brt",2008
17,"CCH Oriente",19.3833394533743,-99.0607808938439,"brt",2008
18,"Leyes de Reforma",19.3834765301221,-99.0658177248664,"brt",2008
19,"Del Moral",19.3842589255347,-99.0708963066242,"brt",2008
20,"Río Frío",19.3876473312085,-99.0742740045877,"brt",2008
21,"Rojo Gomez",19.3845496850158,-99.0763636313519,"brt",2008
22,"Río Mayo",19.386991749783,-99.0800072472055,"brt",2008
23,"Río Tecolutla",19.3890664526397,-99.0831129671323,"brt",2008
24,"El Rodeo",19.3916049420062,-99.0870555049635,"brt",2008
25,"UPIICSA",19.3938657434531,-99.0904011601174,"brt",2008
26,"Iztacalco",19.3965220578522,-99.096043029349,"brt",2008
27,"Goma",19.3969109326479,-99.0999676263405,"brt",2008
28,"Tlacotal",19.3972610577185,-99.1038424638525,"brt",2008
29,"Tlacotal",19.3979027377028,-99.1093299820447,"brt",2008
30,"Coyuya",19.3982892882432,-99.1168395292279,"brt",2008
31,"La Viga",19.3980832720142,-99.124558370187,"brt",2008
32,"Andrés Molina",19.3976988062855,-99.1296902033797,"brt",2008
33,"Las Américas",19.3934900432563,-99.1343169882017,"brt",2008
34,"Xola",19.3944094144311,-99.1402429224918,"brt",2008
35,"Álamos",19.3947937032611,-99.1429187527855,"brt",2008
36,"Centro SCOP",19.3952801526777,-99.1467332085277,"brt",2008
37,"Doctor Vértiz",19.3955901965486,-99.1517844657167,"brt",2008
38,"Etiopía",19.3958138362133,-99.1550638984562,"brt",2008
39,"Amores",19.3968537939543,-99.1637765629708,"brt",2008
40,"Viaducto",19.4012921489066,-99.1680787106088,"brt",2008
41,"Nuevo León",19.4034994333804,-99.1704295660111,"brt",2008
42,"Nuevo León",19.4020298587663,-99.169796009044,"brt",2005
43,"Escandón",19.4044066309436,-99.1738421491206,"brt",2008
44,"Patriotismo",19.4055692170375,-99.177410816547,"brt",2008
45,"De La Salle",19.4075733698436,-99.1834757356462,"brt",2008
46,"Antonio Maceo",19.40487098127,-99.1858885331834,"brt",2008
47,"Tacubaya",19.4019461362426,-99.1870100670198,"brt",2008
48,"Parque Lira",19.4077481658826,-99.1890326136815,"brt",2008
49,"Zinacantepec",19.282615082174,-99.7012655385474,"inter_city_rail",2018
50,"Central de Autobuses",19.2692585756823,-99.646267123362,"inter_city_rail",2018
51,"Metepec",19.2777948129242,-99.5740867825156,"inter_city_rail",2018
52,"Lerma",19.2786203800915,-99.515007181149,"inter_city_rail",2018
53,"Santa Fe",19.3641307520974,-99.2683636912493,"inter_city_rail",2018
54,"Observatorio",19.3981772104709,-99.2007343572642,"inter_city_rail",2018
55,"Observatorio",19.3980938767748,-99.1999439238068,"heavy_rail",2018
56,"Observatorio",19.3982408390778,-99.200430008444,"heavy_rail",1972
57,"Tacubaya",19.4023252289636,-99.1881860307949,"heavy_rail",1970
58,"Juanacatlán",19.412765863702,-99.1820340171578,"heavy_rail",1970
59,"Chapultepec",19.4205887190002,-99.1768315098876,"heavy_rail",1969
60,"Sevilla",19.4219921600886,-99.1705782439541,"heavy_rail",1969
61,"nsurgentes",19.4237010684957,-99.1630414448482,"heavy_rail",1969
62,"Cuahutemoc",19.4257062047574,-99.1545669530367,"heavy_rail",1969
63,"Balderas",19.4271737695481,-99.1490605552539,"heavy_rail",1969
64,"Salto del Agua",19.4269135191852,-99.1433956247824,"heavy_rail",1969
65,"Isabel la Católica",19.4263339107169,-99.1378597990949,"heavy_rail",1969
66,"Pino Suárez",19.4259280636277,-99.1332330267068,"heavy_rail",1969
67,"Pino Suárez",19.4255878708834,-99.1331033551346,"heavy_rail",1970
68,"Salto del Agua",19.4271142141155,-99.1419621486568,"heavy_rail",1994
69,"Merced",19.4255736341938,-99.1255288512025,"heavy_rail",1969
70,"Candelaria",19.4295695079696,-99.1208713063976,"heavy_rail",1969
71,"San Lázaro",19.4308259628822,-99.1143940367431,"heavy_rail",1969
72,"Moctezuma",19.4268123463708,-99.1096864936053,"heavy_rail",1969
73,"Balbuena",19.4232692312229,-99.1024708611322,"heavy_rail",1969
74,"Boulevard Puerto Aéreo",19.4198779324501,-99.0963179700631,"heavy_rail",1969
75,"Gómez Farías",19.4163885653886,-99.0902662226368,"heavy_rail",1969
76,"Zaragoza",19.4116940609451,-99.0821161454583,"heavy_rail",1969
77,"Pantitlán",19.4162238464329,-99.0746871002861,"heavy_rail",1984
78,"Insurgentes",19.4232524858004,-99.1625345327216,"brt",2005
79,"Balderas",19.4269968150203,-99.1489811659255,"heavy_rail",1970
80,"Cuatro Caminos",19.4595657966862,-99.2158232476542,"heavy_rail",1984
81,"Panteones",19.4588350271207,-99.2035835772869,"heavy_rail",1984
82,"Tacuba",19.4591617657034,-99.1871776392854,"heavy_rail",1970
83,"Tacuba",19.4595354216408,-99.1887529141409,"heavy_rail",1984
84,"Cuitláhuac",19.4572456674812,-99.1815269050584,"heavy_rail",1970
85,"Popotla",19.4528831314224,-99.1755256908421,"heavy_rail",1970
86,"Colegio Militar",19.4490354987353,-99.1716456594924,"heavy_rail",1970
87,"Normal",19.444574981844,-99.1673646626094,"heavy_rail",1970
88,"San Cosme",19.4418540445617,-99.1607187775514,"heavy_rail",1970
89,"Revolución",19.4391154700806,-99.1541889431207,"heavy_rail",1970
90,"Hidalgo",19.4374696058989,-99.147270307309,"heavy_rail",1970
91,"Hidalgo",19.4367550747939,-99.1470405535572,"heavy_rail",1970
92,"Bellas Artes",19.4363330730272,-99.1417378835171,"heavy_rail",1970
93,"Bellas Artes",19.4373683311226,-99.1404400555961,"heavy_rail",1994
94,"Allende",19.435539493427,-99.1368956916568,"heavy_rail",1970
95,"Zócalo",19.4330502524332,-99.1323598596992,"heavy_rail",1970
96,"San Antonio Abad",19.4159869752409,-99.134564142805,"heavy_rail",1970
97,"Chabacano",19.4092368454982,-99.1355524358709,"heavy_rail",1970
98,"Chabacano",19.4101350721497,-99.1338007469343,"heavy_rail",1994
99,"Chabacano",19.4084582663385,-99.1339672826445,"heavy_rail",1987
100,"Viaducto",19.4010514915154,-99.136933318241,"heavy_rail",1970
101,"Xola",19.3951752758281,-99.137819237487,"heavy_rail",1970
102,"Villa de Cortés",19.3875484142322,-99.1389675916051,"heavy_rail",1970
103,"Nativitas",19.3801992972116,-99.1400599925141,"heavy_rail",1970
104,"Portales",19.369803555935,-99.141618238769,"heavy_rail",1970
105,"Ermita",19.3619044011804,-99.142961656292,"heavy_rail",1970
106,"Ermita",19.3600549783776,-99.1433482707541,"heavy_rail",2012
107,"General Anaya",19.3532220177726,-99.1450635107819,"heavy_rail",1970
108,"Tasqueña",19.3437513365913,-99.1395297620275,"heavy_rail",1970
109,"Tasqueña",19.3436833580331,-99.1398769997619,"light_rail",1986
110,"Indios Verdes",19.497006074088,-99.1198417039043,"brt",2005
111,"Indios Verdes",19.4951066194379,-99.1195025830593,"heavy_rail",1979
112,"Deportivo 18 de Marzo",19.4863250507329,-99.12438418668,"brt",2005
113,"Deportivo 18 de Marzo",19.4852299195026,-99.1254092491352,"heavy_rail",1979
114,"Deportivo 18 de Marzo",19.4835703041944,-99.1255331374123,"heavy_rail",1986
115,"Euzkaro",19.4824717791934,-99.1274856121257,"brt",2005
116,"Potrero",19.4771205494647,-99.132062359385,"heavy_rail",1979
117,"Potrero",19.4765715181273,-99.1323452313851,"brt",2005
118,"La Raza",19.4686317227476,-99.1389386519606,"brt",2005
119,"La Raza",19.4697381979458,-99.136553138918,"heavy_rail",1982
120,"La Raza",19.4677138753167,-99.1403736223466,"heavy_rail",1978
121,"Tlatelolco",19.4559215085441,-99.1450371035676,"brt",2011
122,"Tlatelolco",19.4550918372327,-99.1431721339351,"heavy_rail",1970
123,"Guerrero",19.444799251727,-99.1451704068674,"heavy_rail",1970
124,"Buenavista",19.4462203177532,-99.1527454463339,"heavy_rail",1999
125,"Guerrero",19.4451513535256,-99.1463826656679,"heavy_rail",1999
126,"Guerrero",19.4454689069286,-99.1474121964919,"brt",2011
127,"Garibaldi",19.4439301222116,-99.1389603278317,"heavy_rail",1999
128,"Garibaldi",19.443970805706,-99.1394403409315,"heavy_rail",1994
129,"Juárez",19.4332832112607,-99.1477336447081,"heavy_rail",1970
130,"Niños Héroes",19.4191802199858,-99.1504208185496,"heavy_rail",1970
131,"Hospital General",19.4136853046339,-99.1533631273162,"heavy_rail",1970
132,"Centro Médico",19.4074811209658,-99.1550831547912,"heavy_rail",1980
133,"Centro Médico",19.4065643982534,-99.1550411659192,"heavy_rail",1987
134,"Centro Médico",19.406834221167,-99.1551453741444,"brt",2011
135,"Etiopía",19.3962204944972,-99.1560404400647,"heavy_rail",1980
136,"Etiopía",19.3965105656737,-99.1559430570958,"brt",2011
137,"Eugenia",19.3861857701122,-99.1571616497674,"heavy_rail",1980
138,"División del Norte",19.3789896955672,-99.1595028322044,"heavy_rail",1980
139,"Zapata",19.3712094003284,-99.1645238014542,"heavy_rail",1980
140,"Zapata",19.3706794076574,-99.1650483886298,"heavy_rail",2012
141,"Coyoacán",19.3614583350291,-99.170812644859,"heavy_rail",1983
142,"Viveros",19.3537393065906,-99.1756538071393,"heavy_rail",1983
143,"Miguel Ángel de Quevedo",19.3461057400761,-99.1808105998375,"heavy_rail",1983
144,"Copilco",19.336200273628,-99.1771988256913,"heavy_rail",1983
145,"Universidad",19.3244101057388,-99.1739110875134,"heavy_rail",1983
146,"Pantitlán",19.4153318627697,-99.0718647915391,"heavy_rail",1991
147,"Agricola Oriental",19.4046016425706,-99.0695313542302,"heavy_rail",1991
148,"Canal de San Juan",19.3987613356046,-99.0594249384581,"heavy_rail",1991
149,"Tepalcates",19.391271926643,-99.046329768698,"heavy_rail",1991
150,"Guelatao",19.3851485180768,-99.0356567400827,"heavy_rail",1991
151,"Peñón Viejo",19.3733328716618,-99.0170380600867,"heavy_rail",1991
152,"Acatitla",19.3646941444059,-99.0056696043297,"heavy_rail",1991
153,"Santa Marta",19.3602791297215,-98.9951841024836,"heavy_rail",1991
154,"Los Reyes",19.3590268753468,-98.9768299077067,"heavy_rail",1991
155,"La Paz",19.3506617778139,-98.9610129917324,"heavy_rail",1991
156,"Valentín Campa",19.3820274707916,-99.2000462346233,"heavy_rail",2018
157,"Alvaro Obregón",19.3903269650505,-99.1978157287364,"heavy_rail",2018
158,"Mixcoac",19.3762129416118,-99.1876455392622,"heavy_rail",1985
159,"Mixcoac",19.3759319272635,-99.1876466752269,"heavy_rail",2012
160,"Insurgentes Sur",19.3736989271789,-99.1787239253208,"heavy_rail",2012
161,"Hospital 20 de Noviembre",19.3720045628369,-99.17101840241,"heavy_rail",2012
162,"Parque de los Venados",19.3706376088371,-99.1586979232007,"heavy_rail",2012
163,"Eje Central",19.3613174641288,-99.1514750369944,"heavy_rail",2012
164,"Mexicaltzingo",19.3577091458127,-99.1226658361906,"heavy_rail",2012
165,"Atlalilco",19.3525620590088,-99.1063349450053,"heavy_rail",2012
166,"Culhuacán",19.3369855038093,-99.108965612229,"heavy_rail",2012
167,"San Andrés Tomatlán",19.3281753384268,-99.1048120934274,"heavy_rail",2012
168,"Lomas Estrella",19.3221293017093,-99.0957371558288,"heavy_rail",2012
169,"Calle 11",19.320376475741,-99.0855378441762,"heavy_rail",2012
170,"Periferico Oriente",19.3175555116468,-99.0744958779777,"heavy_rail",2012
171,"Tezonco",19.3065078071623,-99.0659706667065,"heavy_rail",2012
172,"Olivos",19.3042576023288,-99.0595875703185,"heavy_rail",2012
173,"Nopalera",19.2999041273183,-99.045862906274,"heavy_rail",2012
174,"Zapotitlán",19.2966373667164,-99.0342560469471,"heavy_rail",2012
175,"Tlaltenco",19.2943959802833,-99.0239161583328,"heavy_rail",2012
176,"Tláhuac",19.2860850047941,-99.0141981211013,"heavy_rail",2012
177,"Martín Carrera",19.4827715301794,-99.1070257631375,"heavy_rail",1986
178,"Martín Carrera",19.4850541056954,-99.1043549292768,"heavy_rail",1981
179,"Talismán",19.4743589993294,-99.1079878653886,"heavy_rail",1981
180,"Bondojito",19.4649191557192,-99.1118474295411,"heavy_rail",1981
181,"Consulado",19.4580227656082,-99.1139581595524,"heavy_rail",1981
182,"Consulado",19.4551361831907,-99.1137617388979,"heavy_rail",1982
183,"Canal del Norte",19.4488239720742,-99.1161958092468,"heavy_rail",1981
184,"Morelos",19.4396814409051,-99.1181294621848,"heavy_rail",1981
185,"Candelaria",19.4287301490609,-99.1194292760928,"heavy_rail",1981
186,"Fray Servando",19.4216024578473,-99.1205076253513,"heavy_rail",1982
187,"Jamaica",19.4109545604179,-99.1217300015281,"heavy_rail",1982
188,"Jamaica",19.409115390855,-99.1222052654119,"heavy_rail",1987
189,"Santa Anita",19.4028877254107,-99.1216769989189,"heavy_rail",1982
190,"Santa Anita",19.404132053239,-99.1206753146747,"heavy_rail",1994
191,"San Juan de Letrán",19.4313722607106,-99.1413085662939,"heavy_rail",1994
192,"Doctores",19.4214988022345,-99.143182487388,"heavy_rail",1994
193,"Obrera",19.4129953367559,-99.1440665744821,"heavy_rail",1994
194,"La Viga",19.4066344418466,-99.1263356127448,"heavy_rail",1994
195,"Coyuya",19.3985839035526,-99.1135245904752,"heavy_rail",1994
196,"Iztacalco",19.38831704876,-99.1121027731783,"heavy_rail",1994
197,"Apatlaco",19.3790936338285,-99.1095744249961,"heavy_rail",1994
198,"Aculco",19.3734868366097,-99.1077512048486,"heavy_rail",1994
199,"Escuadrón 201",19.3648143743107,-99.1095416153013,"heavy_rail",1994
200,"Atlalilco",19.3560203034157,-99.1012722421292,"heavy_rail",1994
201,"Iztapalapa",19.3577929015178,-99.0933581784781,"heavy_rail",1994
202,"Cerro de la Estrella",19.3559129206998,-99.0856010546647,"heavy_rail",1994
203,"UAM-I",19.3510397497392,-99.0749023963541,"heavy_rail",1994
204,"Constitución de 1917",19.3459102226673,-99.0637033771016,"heavy_rail",1994
205,"Politécnico",19.5007161330047,-99.1492228435604,"heavy_rail",1982
206,"Instituto del Petróleo",19.4893114723247,-99.1446662085764,"heavy_rail",1982
207,"Instituto del Petróleo",19.4907742644151,-99.1467914680515,"heavy_rail",1983
208,"Autobuses del Norte",19.4790887641902,-99.1406454606913,"heavy_rail",1982
209,"Misterios",19.4631900152768,-99.1306154976261,"heavy_rail",1982
210,"Valle Gómez",19.4587949889002,-99.1195194410817,"heavy_rail",1982
211,"Eduardo Molina",19.4513783381846,-99.1054019087056,"heavy_rail",1981
212,"Aragón",19.4512304746731,-99.0962552678384,"heavy_rail",1981
213,"Oceanía",19.4457039044291,-99.0871467819002,"heavy_rail",1999
214,"Oceanía",19.4454399856183,-99.0870402982883,"heavy_rail",1981
215,"Terminal Aerea",19.4338881145306,-99.088031112062,"heavy_rail",1981
216,"Hangares",19.4243691217778,-99.0878608603447,"heavy_rail",1981
217,"Pantitlán",19.4150687672733,-99.0742733819352,"heavy_rail",1981
218,"Pantitlán",19.4154670904002,-99.0721644552022,"heavy_rail",1987
219,"Puebla",19.4071787174683,-99.0823568085933,"heavy_rail",1987
220,"Ciudad Deportiva",19.4084343291304,-99.091270080688,"heavy_rail",1987
221,"Velodromo",19.4085392572113,-99.1031415183562,"heavy_rail",1987
222,"Mixiuhca",19.4084050216628,-99.1130088414029,"heavy_rail",1987
223,"Lázaro Cárdenas",19.4071435167392,-99.1445966472567,"heavy_rail",1987
224,"Chilpancingo",19.4059193685803,-99.1689219536841,"heavy_rail",1988
225,"Patriotismo",19.4061480151773,-99.1788202450954,"heavy_rail",1988
226,"Tacubaya",19.4009897784562,-99.1879766473773,"heavy_rail",1988
227,"Tacubaya",19.4022276216248,-99.1867071955959,"heavy_rail",1984
228,"Barranca del Muerto",19.3615215732305,-99.1892394590572,"heavy_rail",1985
229,"San Antonio",19.3850934727298,-99.1865990874607,"heavy_rail",1985
230,"San Pedro de los Pinos",19.3914720392639,-99.1858684354758,"heavy_rail",1985
231,"Constituyentes",19.4119978454209,-99.1915229364252,"heavy_rail",1984
232,"Auditorio",19.4250166440377,-99.1919019055539,"heavy_rail",1984
233,"Polanco",19.4336539144216,-99.1908964740083,"heavy_rail",1984
234,"San Joaquín",19.4450292689433,-99.1917721423708,"heavy_rail",1984
235,"Refinería",19.4696796092333,-99.1903897597155,"heavy_rail",1988
236,"Camarones",19.4790999675372,-99.1900152176688,"heavy_rail",1988
237,"Aquiles Serdán",19.4912087078915,-99.1957240304983,"heavy_rail",1988
238,"El Rosario",19.5046198798579,-99.1997470497769,"heavy_rail",1988
239,"El Rosario",19.5047151304159,-99.2000951241675,"heavy_rail",1983
240,"Tezozómoc",19.4949557269485,-99.1961820965771,"heavy_rail",1983
241,"Azcapotzalco",19.4910388586605,-99.1865102309712,"heavy_rail",1983
242,"Fortuna",19.4919594164453,-99.1713014418134,"commuter_rail",2008
243,"Ferrería/Arena Ciudad de México",19.4906563279424,-99.1738154970043,"heavy_rail",1983
244,"Norte 45",19.4887139663009,-99.1630290580263,"heavy_rail",1983
245,"Vallejo",19.4898251969799,-99.1560129335186,"heavy_rail",1983
246,"Lindavista",19.4878898335583,-99.1347175196342,"heavy_rail",1986
247,"La Villa-Basílica",19.4815729313294,-99.1183644889993,"heavy_rail",1986
248,"Lagunilla",19.4431989774682,-99.1308296817461,"heavy_rail",1999
249,"Tepito",19.4427329533441,-99.123642012046,"heavy_rail",1999
250,"Morelos",19.4392163320636,-99.1196336629875,"heavy_rail",1999
251,"San Lázaro",19.4323550137496,-99.1130077920339,"heavy_rail",1999
252,"Ricardo Flores Magón",19.4365188152084,-99.1036486627839,"heavy_rail",1999
253,"Romero Rubio",19.4407013806213,-99.09453460138,"heavy_rail",1999
254,"Deportivo Oceanía",19.4510016106221,-99.079271798094,"heavy_rail",1999
255,"Bosque de Aragón",19.458103098149,-99.0692910878547,"heavy_rail",1999
256,"Villa de Aragón",19.4616260565995,-99.0613211835529,"heavy_rail",1999
257,"Nezahualcóyotl",19.4728546392504,-99.0546404944242,"heavy_rail",2000
258,"Impulsora",19.4856981143385,-99.0489840318751,"heavy_rail",2000
259,"Río de los Remedios",19.4907957225569,-99.0467393546729,"heavy_rail",2000
260,"Múzquiz",19.501460206195,-99.04205433958,"heavy_rail",2000
261,"Ecatepec",19.5150918384213,-99.0360576571266,"heavy_rail",2000
262,"Olímpica",19.5213210034153,-99.0333184174264,"heavy_rail",2000
263,"Plaza Aragón",19.5284700424149,-99.0301742017643,"heavy_rail",2000
264,"Ciudad Azteca",19.5345394207449,-99.0275023271053,"heavy_rail",2000
265,"Las Torres",19.340850634317,-99.1434391360953,"light_rail",1986
266,"Ciudad Jardín",19.3357292397605,-99.1418522747334,"light_rail",1986
267,"La Virgen",19.3317131715314,-99.1406126436044,"light_rail",1986
268,"Xotepingo",19.3274871612282,-99.1393020235979,"light_rail",1986
269,"Nezahualpilli",19.3237880020834,-99.138149674604,"light_rail",1986
270,"Registro Federal",19.3179318389966,-99.1387879577001,"light_rail",1986
271,"Textitlán",19.3131091986884,-99.1404062187929,"light_rail",1986
272,"El Vergel",19.3072296471047,-99.1430552239255,"light_rail",1986
273,"Estadio Azteca",19.3018467385206,-99.1470147133486,"light_rail",1986
274,"Huipulco",19.2975706871041,-99.1506812915043,"light_rail",1986
275,"Xomali",19.2887103379424,-99.1467284366689,"light_rail",1986
276,"Periférico",19.2827453088167,-99.1396611196744,"light_rail",1986
277,"Tepepan",19.2795565716093,-99.1332272924976,"light_rail",1986
278,"La Noria",19.2679822459468,-99.1257139307248,"light_rail",1986
279,"Huichapan",19.2644308740883,-99.1186688680066,"light_rail",1986
280,"Francisco Goitia",19.2607221474312,-99.1112682295533,"light_rail",1986
281,"Xochimilco",19.2594444549942,-99.1080661336623,"light_rail",1986
282,"Buenavista",19.4481984917704,-99.1520506904616,"commuter_rail",2008
283,"Tlalnepantla",19.5366350749723,-99.1841213756083,"commuter_rail",2008
284,"San Rafael",19.5649089389223,-99.1955623420723,"commuter_rail",2008
285,"Lecheria",19.5996424842247,-99.1860654793729,"commuter_rail",2008
286,"Tultitlán",19.6348410102016,-99.1805410101007,"commuter_rail",2008
287,"Cuautitlán",19.6669530183489,-99.1762294309395,"commuter_rail",2008
288,"Circuito",19.4626072161463,-99.1440057910497,"brt",2005
289,"San Simón",19.4596151902014,-99.146426329319,"brt",2005
290,"Manuel González",19.4567174072864,-99.1494003463452,"brt",2005
291,"Buenavista",19.4468200094258,-99.1532034523778,"brt",2005
292,"El Chopo",19.4433858904037,-99.1544870949581,"brt",2005
293,"Revolución",19.4402985592362,-99.1555087307106,"brt",2005
294,"Plaza de la República",19.436030354029,-99.1574234329,"brt",2005
295,"Reforma",19.4328756986565,-99.1587842004418,"brt",2005
296,"Hamburgo",19.4274365717556,-99.1612529382204,"brt",2005
297,"Durango",19.4198989843272,-99.1640971681122,"brt",2005
298,"Álvaro Obregón",19.4165476676218,-99.1650722423038,"brt",2005
299,"Sonora",19.4133190716115,-99.1661337217264,"brt",2005
300,"Campeche",19.4098270828963,-99.1672276946176,"brt",2005
301,"Chilpancingo",19.406584826738,-99.1682922950951,"brt",2005
302,"La Piedad",19.3979418024209,-99.1711307981016,"brt",2005
303,"Poliforum",19.3932775106503,-99.1726209098198,"brt",2005
304,"Nápoles",19.3896653051484,-99.1737748848506,"brt",2005
305,"Colonia del Valle",19.3856418475151,-99.175118213583,"brt",2005
306,"Ciudad de los Deportes",19.3824565529785,-99.1761614490828,"brt",2005
307,"Parque Hundido",19.3795901747879,-99.1770873907861,"brt",2005
308,"Felix Cuevas",19.3742622565339,-99.178808579612,"brt",2005
309,"Río Churubusco",19.3688227667578,-99.1805719422289,"brt",2005
310,"Teatro de los Insurgentes",19.364902069998,-99.1818438298479,"brt",2005
311,"José María Velasco",19.3617627556719,-99.1828619933623,"brt",2005
312,"Francia",19.3584453480035,-99.1839386850715,"brt",2005
313,"Olivo",19.3545740541159,-99.1851991704529,"brt",2005
314,"Altavista",19.350890979377,-99.1863943273437,"brt",2005
315,"Bombilla",19.3467830170852,-99.187744914152,"brt",2005
316,"Obrero Mundial",19.4010245158608,-99.1555821432113,"brt",2011
317,"Dr. Márquez",19.4111226452578,-99.1548159904607,"brt",2011
318,"Hospital General",19.4143860156137,-99.1545338992588,"brt",2011
319,"Jardín Pushkin",19.4205091237389,-99.1540928424919,"brt",2011
320,"Cuauhtémoc",19.4250515875194,-99.1537144367473,"brt",2011
321,"Balderas",19.4281101492769,-99.1487675325392,"brt",2011
322,"Juárez",19.4317367404037,-99.1479975433635,"brt",2011
323,"Hidalgo",19.4359963981733,-99.1471762359797,"brt",2011
324,"Mina",19.4405260012895,-99.1486103079272,"brt",2011
325,"Buenavista",19.4518757989544,-99.1459577828515,"brt",2011
326,"Tolnahuac",19.4599895058531,-99.1441175381642,"brt",2011
327,"Circuito",19.4631073255356,-99.1442909173457,"brt",2011
328,"Hospital La Raza",19.468154997423,-99.1440184495098,"brt",2011
329,"La Raza",19.4674592332044,-99.1407881087477,"brt",2011
330,"Héroe de Nacozari",19.4714044165896,-99.1451189001899,"brt",2011
331,"Cuitláhuac",19.4744163919297,-99.1462361551805,"brt",2011
332,"Coltongo",19.479949442591,-99.148382835466,"brt",2011
333,"Magdalena La Salinas",19.4839242040075,-99.1499422730141,"brt",2011
334,"Poniente 128",19.4896865850471,-99.1522105399596,"brt",2011
335,"Poniente 134",19.4928584484687,-99.1532874687476,"brt",2011
336,"Montevideo",19.4960493401494,-99.1545132718357,"brt",2011
337,"Poniente 146",19.5000588876326,-99.1559823987576,"brt",2011
338,"La Patera",19.5036990485553,-99.1573955588631,"brt",2011
339,"Júpiter",19.5084309326485,-99.1592638773083,"brt",2011
340,"Tres Anegas",19.515497589105,-99.1619463866786,"brt",2011
341,"Progreso Nacional",19.5194603498688,-99.1636281242306,"brt",2011
342,"San José de la Escalera",19.5227398485006,-99.1655032234296,"brt",2011
343,"Tenayuca",19.5286740112869,-99.1700941284836,"brt",2011
344,"Buenavista",19.4448090554433,-99.1524151466598,"brt",2012
345,"Delegación Cuauhtémoc",19.4424662134651,-99.1524525828306,"brt",2012
346,"Puente de Alvarado",19.4390750501917,-99.1532753421088,"brt",2012
347,"Plaza de la República",19.4370057036076,-99.1540535456832,"brt",2012
348,"Glorieta de Colón",19.4344924106122,-99.1534135816378,"brt",2012
349,"Expo Reforma",19.4333083228039,-99.1506269025789,"brt",2012
350,"Vocacional 5",19.4316505855701,-99.1506269025789,"brt",2012
351,"Juárez",19.4312537307739,-99.1480824143363,"brt",2012
352,"Plaza San Juan",19.4305988845343,-99.1435088892013,"brt",2012
353,"Eje Central",19.4303437146859,-99.1416835199812,"brt",2012
354,"El Salvador",19.430104459307,-99.1398602732233,"brt",2012
355,"Isabel La Católica",19.4296666720336,-99.1369129405264,"brt",2012
356,"Museo de la Ciudad",19.4290861940245,-99.132583933987,"brt",2012
357,"Pino Suárez",19.4264622823415,-99.1323661199025,"brt",2012
358,"Las Cruces Sur",19.426123116437,-99.1297766815333,"brt",2012
359,"La Merced",19.4254962055786,-99.1256407681345,"brt",2012
360,"Circunvalación",19.4283318333186,-99.1257771558187,"brt",2012
361,"Las Cruces Norte",19.4286158232209,-99.1292578857668,"brt",2012
362,"Mercado de Sonora",19.4232056155853,-99.1237000564445,"brt",2012
363,"Cecilio Robelo",19.4255181121785,-99.1198251697063,"brt",2012
364,"Hospital Balbuena",19.4249142306959,-99.114586045227,"brt",2012
365,"Eduardo Molina",19.4271984205753,-99.1156092138883,"brt",2012
366,"Moctezuma",19.4269826385576,-99.1118130724107,"brt",2012
367,"San Lázaro",19.4308343771129,-99.1152862112753,"brt",2012
368,"Archivo General de la Nación",19.4353836754971,-99.1147487994066,"brt",2012
369,"Terminal 2",19.4215298854938,-99.0771377128723,"brt",2012
370,"Terminal 1",19.4352962023889,-99.083805344996,"brt",2012
371,"Morelos",19.4358254951868,-99.1188783859277,"brt",2012
372,"Ferrocarril de Cintura",19.436106156667,-99.1211582810861,"brt",2012
373,"Mixcalco",19.4363733894491,-99.1239600165171,"brt",2012
374,"Teatro del Pueblo",19.4368232309977,-99.1272953851054,"brt",2012
375,"República de Argentina",19.4373865556023,-99.1314949529461,"brt",2012
376,"República de Chile",19.4379114467248,-99.1355735121545,"brt",2012
377,"Teatro Blanquita",19.4385552304941,-99.1398105087442,"brt",2012
378,"Bellas Artes",19.4364075904169,-99.141726619535,"brt",2012
379,"Hidalgo",19.4373102109954,-99.1460175843174,"brt",2012
380,"Museo San Carlos",19.4382814268456,-99.1506477475265,"brt",2012
381,"Río de los Remedios",19.5067911538135,-99.0860798603996,"brt",2013
382,"314. Memorial New's Divine",19.5006857047908,-99.0887121572469,"brt",2013
383,"5 de Mayo",19.4971884001931,-99.0901733931163,"brt",2013
384,"Vasco de Quiroga",19.4922028035368,-99.0922573094059,"brt",2013
385,"El Coyol",19.4875214609355,-99.094224432222,"brt",2013
386,"Preparatoria 3",19.4841038197543,-99.0957707231772,"brt",2013
387,"San Juan de Aragón",19.4803872886558,-99.097373488011,"brt",2013
388,"Río Guadalupe",19.4760901548433,-99.0990800031599,"brt",2013
389,"Talismán",19.4709515924644,-99.1012663934612,"brt",2013
390,"Victoria",19.4673599715587,-99.1028020440947,"brt",2013
391,"Oriente 101",19.4620328425689,-99.1050540882253,"brt",2013
392,"Santa Coleta",19.4576621731067,-99.106787814415,"brt",2013
393,"Río Consulado",19.4536258214648,-99.1084532753147,"brt",2013
394,"Canal del Norte",19.4494151418233,-99.110412886428,"brt",2013
395,"Deportivo Eduardo Molina",19.4448470044832,-99.1120673702091,"brt",2013
396,"Mercado Morelos",19.4410196280865,-99.1134990737375,"brt",2013
397,"Archivo General",19.4371105810983,-99.1144317775119,"brt",2013
398,"San Lázaro",19.4322306683427,-99.1151638148028,"brt",2013
399,"El Rosario",19.5068030764656,-99.1999729827324,"brt",2016
400,"Colegio de Bachilleres 1",19.5114659664647,-99.1974774659062,"brt",2016
401,"De Las Culturas",19.5108226746091,-99.1929007202966,"brt",2016
402,"Ferrocarriles Nacionales",19.505080329605,-99.1895997030807,"brt",2016
403,"UAM Azcapotzalco",19.5040128907035,-99.1836377211505,"brt",2016
404,"Tecnoparque",19.5013513564393,-99.1766392173328,"brt",2016
405,"Norte 59",19.4974922092271,-99.1649234947551,"brt",2016
406,"Norte 45",19.4961653915983,-99.1587843799303,"brt",2016
407,"Montevideo",19.4950851029848,-99.1537811489636,"brt",2016
408,"Lindavista-Vallejo",19.4943063882511,-99.1500466992093,"brt",2016
409,"Instituto del Petróleo",19.4933763192529,-99.1457743332503,"brt",2016
410,"San Bartolo",19.491937141652,-99.1386554160631,"brt",2016
411,"Instituto Politécnico Nacional",19.4906388767715,-99.1331216036401,"brt",2016
412,"Riobamba",19.4890675634381,-99.1289273765355,"brt",2016
413,"Deportivo 18 de Marzo",19.4867942030458,-99.1228383969164,"brt",2016
414,"La Villa",19.4852779174596,-99.1191417022881,"brt",2016
415,"De los Misterios",19.487171887923,-99.1179044235121,"brt",2016
416,"Hospital Infantil La Villa",19.4878645615458,-99.1142235404531,"brt",2016
417,"Delegación Gustavo A. Madero",19.4840740715228,-99.1130304747726,"brt",2016
418,"Martín Carrera",19.4823650276417,-99.105991924015,"brt",2016
419,"Hospital General La Villa",19.4805196857278,-99.1017954104991,"brt",2016
420,"San Juan de Aragón",19.4788144333089,-99.0974474332659,"brt",2016
421,"Gran Canal",19.4768602713437,-99.0922403882152,"brt",2016
422,"Casas Alemán",19.4747623535926,-99.0885637441302,"brt",2016
423,"Pueblo San Juan de Aragón",19.4707524763017,-99.0861616212085,"brt",2016
424,"Loreto Fabela",19.4673934355617,-99.0807519653905,"brt",2016
425,"416 Poniente",19.4729680502734,-99.0791970853656,"brt",2016
426,"482",19.4669545276605,-99.0753345567991,"brt",2016
427,"414",19.4684758987204,-99.071649907881,"brt",2016
428,"416 Oriente",19.4714107857246,-99.0709256837381,"brt",2016
429,"Deportivo Los Galeana",19.4785740832947,-99.0778884003917,"brt",2016
430,"Ampliación Providencia",19.4799248233605,-99.0752315688699,"brt",2016
431,"Volcán de Fuego",19.4767028533953,-99.0721480120971,"brt",2016
432,"La Pradera",19.4739263501162,-99.0694485095436,"brt",2016
433,"Colegio de Bachilleres 9",19.4694696253223,-99.0647226887037,"brt",2016
434,"Francisco Morazán",19.467120150012,-99.0618545785934,"brt",2016
435,"Villa de Aragón",19.4647180076954,-99.0591322506791,"brt",2016
436,"Fuente de Petróleos",19.4277917423624,-99.2020639177375,"brt",2017
437,"Campo Marte",19.4268946255981,-99.1994186475196,"brt",2017
438,"Auditorio",19.4259169749421,-99.1928912754411,"brt",2017
439,"Museo de Antropología",19.4247417303765,-99.1850917904775,"brt",2017
440,"Gandhi",19.424057208922,-99.180554748633,"brt",2017
441,"Puerta de los Leones",19.4239791093057,-99.1741309539834,"brt",2017
442,"La Diana",19.42548127782,-99.1709311430098,"brt",2017
443,"El Ángel",19.4274523563291,-99.1677945636288,"brt",2017
444,"La Palma",19.4282357472795,-99.1650123218419,"brt",2017
445,"Hamburgo",19.4293244814502,-99.1627302505172,"brt",2017
446,"Reforma",19.4307905349031,-99.159626896143,"brt",2017
447,"París",19.4324342214743,-99.1561423266297,"brt",2017
448,"Glorieta Colón",19.4338293283292,-99.1531773132305,"brt",2017
449,"El Caballito",19.4356216024836,-99.1497024937752,"brt",2017
450,"Hidalgo",19.4370378547013,-99.147149155783,"brt",2017
451,"Valerio Trujano",19.4422076254722,-99.1413911296965,"brt",2017
452,"La Lagunilla",19.4441949168903,-99.1389993950559,"brt",2017
453,"Cuitláhuac",19.4476881703113,-99.1353490485714,"brt",2017
454,"U. H. Tlatelolco",19.4490021469003,-99.1341017763299,"brt",2017
455,"Peralvillo",19.4529733017995,-99.1310645998854,"brt",2017
456,"Juventino Rosas",19.4572969012796,-99.1292790568228,"brt",2017
457,"De los Misterios",19.4618310502106,-99.1275236197024,"brt",2017
458,"Clave",19.4646568047009,-99.1264555743756,"brt",2017
459,"Ing. Robles Domínguez",19.4684238214218,-99.1250309174098,"brt",2017
460,"Excélsior",19.4720701336746,-99.1236525754872,"brt",2017
461,"Necaxa",19.4762757641449,-99.1220657405788,"brt",2017
462,"Euzkaro",19.4797541326955,-99.1207690547381,"brt",2017
463,"Garrido",19.4833364561726,-99.119431716724,"brt",2017
464,"Delegación Gustavo A. Madero",19.4832794250237,-99.1140717397602,"brt",2017
465,"Hospital Infantil la Villa",19.4876765181015,-99.113577585061,"brt",2017
466,"Ahuehuete",19.4870202213302,-99.1179620929538,"brt",2017
467,"Indios Verdes",19.4962121845505,-99.122991222968,"brt",2017
