"nodeID","nodeLabel","latitude","longitude","mode","year"
1,"东方之门",31.3191369,120.6759781,"heavy_rail",2012
2,"狮子山",31.2964953,120.5446998,"heavy_rail",2012
3,"乐桥",31.3085631,120.6180739,"heavy_rail",2012
4,"木渎",31.2772181974439,120.513953730991,"heavy_rail",2012
5,"金枫路",31.2786826993524,120.525623506315,"heavy_rail",2012
6,"汾湖路",31.280256480909,120.537280320213,"heavy_rail",2012
7,"玉山路",31.2858284605754,120.545497861314,"heavy_rail",2012
8,"塔园路",31.3021716281384,120.552541724336,"heavy_rail",2012
9,"滨河路",31.3029211089022,120.561865432398,"heavy_rail",2012
10,"西环路",31.3036307216161,120.573140012869,"heavy_rail",2012
11,"桐泾北路",31.3052324298404,120.587117399729,"heavy_rail",2012
12,"广济南路",31.306118145816,120.597002890677,"heavy_rail",2012
13,"养育巷",31.3072404229767,120.609549147358,"heavy_rail",2012
14,"临顿路",31.3101576064386,120.626398268717,"heavy_rail",2012
15,"相门",31.3118671085577,120.634337276647,"heavy_rail",2012
16,"东环路",31.3143306053177,120.64560774502,"heavy_rail",2012
17,"中央公园",31.315933908991,120.656199742576,"heavy_rail",2012
18,"星海广场",31.3176021454123,120.666606769826,"heavy_rail",2012
19,"文化博览中心",31.3252018846871,120.700076605711,"heavy_rail",2012
20,"时代广场",31.3246006226598,120.708738995007,"heavy_rail",2012
21,"星湖街",31.3251851884955,120.716289477005,"heavy_rail",2012
22,"南施街",31.3264862357567,120.729026736972,"heavy_rail",2012
23,"星塘街",31.3276091496251,120.739807867239,"heavy_rail",2012
24,"钟南街",31.3284937277175,120.751896286989,"heavy_rail",2012
25,"劳动路",31.2926004,120.5933066,"heavy_rail",2013
26,"宝带桥南",31.2520807343579,120.643629256788,"heavy_rail",2013
27,"石湖东路",31.2550071447681,120.625226153157,"heavy_rail",2013
28,"新家桥",31.2585345396889,120.610645646303,"heavy_rail",2013
29,"盘蠡路",31.2679206162491,120.610473690859,"heavy_rail",2013
30,"友联",31.273738819547,120.604738098854,"heavy_rail",2013
31,"桐泾公园",31.2809154111302,120.59570695899,"heavy_rail",2013
32,"胥江路",31.2875807925023,120.594340807137,"heavy_rail",2013
33,"三香广场",31.2999201300809,120.593801790942,"heavy_rail",2013
34,"广济南路",31.3066171182856,120.59693866942,"heavy_rail",2013
35,"石路",31.3136698235491,120.595964317589,"heavy_rail",2013
36,"山塘街",31.3219255672135,120.597654454815,"heavy_rail",2013
37,"苏州火车站",31.3330376399624,120.606272816215,"heavy_rail",2013
38,"平河路",31.3383932298803,120.610364448144,"heavy_rail",2013
39,"平泷路东",31.3465138292347,120.608820696399,"heavy_rail",2013
40,"陆慕",31.3555337173755,120.619514515584,"heavy_rail",2013
41,"阳澄湖中路",31.3688535,120.6226927,"heavy_rail",2013
42,"徐图港",31.3774985443185,120.621525857113,"heavy_rail",2013
43,"蠡口",31.3902143377521,120.619529833388,"heavy_rail",2013
44,"富元路",31.4055816548641,120.620718527148,"heavy_rail",2013
45,"大湾",31.4185926159072,120.628930755128,"heavy_rail",2013
46,"高铁苏州北站",31.4238611392761,120.64091156422,"heavy_rail",2013
47,"富翔路",31.4320249933767,120.646897108796,"heavy_rail",2016
48,"骑河",31.4393595877824,120.650886348281,"heavy_rail",2016
49,"尹中路",31.2520052488994,120.659695269138,"heavy_rail",2016
50,"郭巷",31.2511843733833,120.668999370805,"heavy_rail",2016
51,"郭苑路",31.2505957983837,120.679670114896,"heavy_rail",2016
52,"尹山湖",31.250285066149,120.693148406638,"heavy_rail",2016
53,"独墅湖南",31.2503188676437,120.700988157998,"heavy_rail",2016
54,"独墅湖邻里中心",31.2554457742472,120.71863178516,"heavy_rail",2016
55,"月亮湾",31.262336464373,120.722737042455,"heavy_rail",2016
56,"松涛街",31.2660689463031,120.736285383124,"heavy_rail",2016
57,"金谷路",31.2716119290713,120.752557709332,"heavy_rail",2016
58,"金尚路",31.2725940961921,120.766015148515,"heavy_rail",2016
59,"桑田岛",31.2745377881532,120.776976852411,"heavy_rail",2016
60,"迎春路",31.2699174,120.6362021,"heavy_rail",2019
61,"北港路",31.2720266,120.6526548,"heavy_rail",2019
62,"东振路",31.290695,120.6720418,"heavy_rail",2019
63,"金厍桥",31.2989369,120.6741393,"heavy_rail",2019
64,"李公堤西",31.3087221,120.6753999,"heavy_rail",2019
65,"烟雨桥",31.3252346,120.6738925,"heavy_rail",2019
66,"唐庄",31.3426331671571,120.679873105475,"heavy_rail",2019
67,"跨塘",31.3446599,120.6897575,"heavy_rail",2019
68,"方湾街",31.3526129,120.7215798,"heavy_rail",2019
69,"丰和路",31.3553998,120.734961,"heavy_rail",2019
70,"双马街",31.3603397,120.7495935,"heavy_rail",2019
71,"唯亭",31.3664754,120.7848181,"heavy_rail",2019
72,"东方之门",31.3192624,120.6759703,"heavy_rail",2019
73,"墅浦路北",31.2821911,120.6699792,"heavy_rail",2019
74,"戈巷街",31.365066,120.7733756,"heavy_rail",2019
75,"葑亭大道",31.3637743,120.7630545,"heavy_rail",2019
76,"苏州园区火车站",31.3444121405237,120.706248763039,"heavy_rail",2019
77,"泥浜",31.3357309110378,120.669025302483,"heavy_rail",2019
78,"通园路南",31.2714847865921,120.663886173122,"heavy_rail",2019
79,"惠昌路",31.3632658,120.5250084,"heavy_rail",2019
80,"铜墩",31.3301973,120.5271435,"heavy_rail",2019
81,"马运路",31.3198914,120.5346698,"heavy_rail",2019
82,"何山",31.3082356,120.5425053,"heavy_rail",2019
83,"狮山路",31.2954913,120.553645,"heavy_rail",2019
84,"沙金桥",31.2927275,120.5652428,"heavy_rail",2019
85,"横山",31.2795221,120.5710307,"heavy_rail",2019
86,"新郭",31.2649791,120.592643,"heavy_rail",2019
87,"石湖北",31.2611229,120.5830529,"heavy_rail",2019
88,"横塘",31.2681294,120.5729555,"heavy_rail",2019
89,"西津桥",31.31504597055,120.54231795456,"heavy_rail",2019
90,"长亭",31.3433546,120.5254738,"heavy_rail",2019
91,"盘蠡路",31.2687849,120.6094336,"heavy_rail",2019
92,"苏州新区火车站",31.3744189,120.5212963,"heavy_rail",2019
93,"宝带路",31.2693351,120.6242717,"heavy_rail",2019
94,"索山桥西",31.2847749,120.5686007,"heavy_rail",2019
95,"狮子山",31.2962646,120.5449641,"heavy_rail",2019
96,"文昌路",31.3576493943724,120.520176175548,"heavy_rail",2019
97,"宝带路",31.2692967,120.6242928,"heavy_rail",2017
98,"乐桥",31.3085279,120.6181927,"heavy_rail",2017
99,"龙道浜",31.4053012546235,120.600648284874,"heavy_rail",2017
100,"张庄",31.3999161164604,120.593556147725,"heavy_rail",2017
101,"姚祥",31.3921825931022,120.594090055927,"heavy_rail",2017
102,"活力岛",31.3772418945148,120.595896330662,"heavy_rail",2017
103,"孙武纪念园",31.3641639204533,120.598613389693,"heavy_rail",2017
104,"平泷路西",31.3467338401694,120.598531275916,"heavy_rail",2017
105,"苏锦",31.3383769322384,120.60109563238,"heavy_rail",2017
106,"苏州火车站",31.3330256503576,120.606421439762,"heavy_rail",2017
107,"北寺塔",31.3231217911458,120.615451745381,"heavy_rail",2017
108,"察院场",31.3130382012064,120.617200529927,"heavy_rail",2017
109,"三元坊",31.3001126079611,120.619496706441,"heavy_rail",2017
110,"南门",31.2942151251091,120.620379121532,"heavy_rail",2017
111,"人民桥南",31.2874699142109,120.621391691565,"heavy_rail",2017
112,"团结桥",31.2777717195196,120.623135485942,"heavy_rail",2017
113,"石湖东路",31.2555924051434,120.625417668049,"heavy_rail",2017
114,"红庄",31.2398744931144,120.624902542734,"heavy_rail",2017
115,"蠡墅",31.2323799524927,120.617344964533,"heavy_rail",2017
116,"石湖莫舍",31.2262890794655,120.599189464135,"heavy_rail",2017
117,"越溪",31.217883965559,120.59204191759,"heavy_rail",2017
118,"文溪路",31.2056015948542,120.592195053496,"heavy_rail",2017
119,"天鹅荡路",31.1932208946646,120.596236290202,"heavy_rail",2017
120,"苏州湾北",31.185984093204,120.590274082756,"heavy_rail",2017
121,"木里",31.1845959193844,120.5731539816,"heavy_rail",2017
122,"清树湾",31.2232427232323,120.628455029322,"heavy_rail",2017
123,"花港",31.2058987460745,120.628642484283,"heavy_rail",2017
124,"江陵西路",31.1802421869866,120.635651725326,"heavy_rail",2017
125,"江兴西路",31.1718032871587,120.628371089923,"heavy_rail",2017
126,"流虹路",31.1648271042078,120.614823984701,"heavy_rail",2017
127,"笠泽路",31.1570094778043,120.611791351691,"heavy_rail",2017
128,"顾家荡",31.1477295070236,120.610660921235,"heavy_rail",2017
129,"苏州湾东",31.1388378806299,120.611443172621,"heavy_rail",2017
130,"松陵大道",31.1336656078294,120.619722719022,"heavy_rail",2017
131,"吴江人民广场",31.1354531431071,120.639302423483,"heavy_rail",2017
132,"吴江汽车站",31.1392772285341,120.658735603975,"heavy_rail",2017
133,"庞金路",31.1396319615079,120.67526014088,"heavy_rail",2017
134,"同里",31.1395783260759,120.695641063155,"heavy_rail",2017
135,"斜塘",31.3013529,120.7298164,"heavy_rail",2021
136,"东沙湖",31.3397504,120.7588115,"heavy_rail",2021
137,"新市桥",31.2923251,120.6068416,"heavy_rail",2021
138,"金厍桥",31.298639,120.6734177,"heavy_rail",2021
139,"黄天荡",31.2989578,120.6602878,"heavy_rail",2021
140,"荷花荡",31.2987818,120.6528931,"heavy_rail",2021
141,"竹辉桥",31.2964549,120.6428796,"heavy_rail",2021
142,"南园北路",31.2954905,120.6307517,"heavy_rail",2021
143,"星波街",31.2987352,120.6822663,"heavy_rail",2021
144,"葑亭大道",31.3630139,120.7630277,"heavy_rail",2021
145,"华莲",31.3010501,120.7183979,"heavy_rail",2021
146,"星塘街",31.3279392,120.7397142,"heavy_rail",2021
147,"方洲公园",31.3192806,120.7398437,"heavy_rail",2021
148,"苏州奥体中心",31.3106343,120.7399784,"heavy_rail",2021
149,"龙墩",31.3374717,120.743578,"heavy_rail",2021
150,"金湖",31.299601,120.7043655,"heavy_rail",2021
151,"李公堤南",31.2984368,120.6906524,"heavy_rail",2021
152,"劳动路",31.2925263,120.5925969,"heavy_rail",2021
153,"南门",31.2942023,120.6198712,"heavy_rail",2021
154,"双桥",31.2880792284968,120.584970914703,"heavy_rail",2021
155,"阳澄湖南",31.3721574,120.7783769,"heavy_rail",2021
156,"索山桥西",31.2852258122173,120.567498121994,"heavy_rail",2021
157,"落星桥",31.283433856603,120.555544493961,"heavy_rail",2021
158,"石城",31.2753148497832,120.548735979867,"heavy_rail",2021
159,"西跨塘",31.2649014706045,120.542181563618,"heavy_rail",2021
160,"大治桥",31.2644358065873,120.529624832294,"heavy_rail",2021
161,"渎川桥",31.2635611210996,120.515198164083,"heavy_rail",2021
162,"灵岩山",31.2557605389705,120.499472545389,"heavy_rail",2021
163,"许家桥",31.2514209928621,120.492761760355,"heavy_rail",2021
164,"茅蓬路东",31.2459112373478,120.487843471391,"heavy_rail",2021
165,"胥口",31.2382015818774,120.477345009471,"heavy_rail",2021
166,"津桥",31.2315614615118,120.468307341654,"heavy_rail",2021
167,"花墩",31.2257717465467,120.461048397139,"heavy_rail",2021
168,"太湖香山",31.2276839218128,120.448114035997,"heavy_rail",2021
169,"草鞋山",31.3782023741266,120.795429930529,"heavy_rail",2023
170,"阳澄湖东",31.3825882806398,120.839216867569,"heavy_rail",2023
171,"正仪",31.3844513384956,120.85625420624,"heavy_rail",2023
172,"莲湖公园",31.3845701903281,120.877276540876,"heavy_rail",2023
173,"祖冲之公园",31.3833972998366,120.89114440854,"heavy_rail",2023
174,"昆山文化艺术中心",31.3834009008337,120.902371961471,"heavy_rail",2023
175,"共青",31.3834116723061,120.913565287059,"heavy_rail",2023
176,"江浦",31.3826735969264,120.924217686145,"heavy_rail",2023
177,"白马泾",31.3833630460212,120.93886340341,"heavy_rail",2023
178,"玉山广场",31.3843248866094,120.952815711884,"heavy_rail",2023
179,"绣衣",31.3849936896316,120.967203649839,"heavy_rail",2023
180,"昆山城市广场",31.3852463517445,120.978263405898,"heavy_rail",2023
181,"金浦大桥东",31.3855931874193,120.991646123025,"heavy_rail",2023
182,"顺帆北路",31.3857681065103,120.999473258356,"heavy_rail",2023
183,"鱼池泾",31.3859802875393,121.012764372388,"heavy_rail",2023
184,"白河潭",31.3859467189616,121.024021082065,"heavy_rail",2023
185,"兵希",31.3860179694893,121.035190605981,"heavy_rail",2023
186,"夏驾河公园",31.379600814223,121.043095520907,"heavy_rail",2023
187,"盛庄",31.366593414627,121.045065091223,"heavy_rail",2023
188,"章基路南",31.3532879602224,121.045063585356,"heavy_rail",2023
189,"夏桥",31.3364023378505,121.04406229043,"heavy_rail",2023
190,"神童泾",31.321696272916,121.035704629505,"heavy_rail",2023
191,"菉葭",31.3115567467461,121.041070587701,"heavy_rail",2023
192,"花桥博览中心",31.2993342919387,121.059163810335,"heavy_rail",2023
193,"集善",31.2973469592113,121.075143579256,"heavy_rail",2023
194,"花溪公园",31.300433409394,121.087169454746,"heavy_rail",2023
195,"花桥",31.301038345855,121.099643251041,"heavy_rail",2023
196,"华云",31.27558125511,120.786742240938,"heavy_rail",
197,"南斜步",31.2767102310124,120.756501574501,"heavy_rail",2024
198,"北斜步",31.2878825586352,120.754863110977,"heavy_rail",2024
199,"金家堰",31.2959626617244,120.755009709236,"heavy_rail",2024
200,"涵青桥",31.3040325956961,120.75656572423,"heavy_rail",2024
201,"儿童医院总院",31.3107577282892,120.751483036112,"heavy_rail",2024
202,"南施公园南",31.3104628711655,120.729440156983,"heavy_rail",2024
203,"琼姬墩",31.3105495076384,120.721452296125,"heavy_rail",2024
204,"李公堤西",31.3085634721825,120.676231071641,"heavy_rail",2024
205,"秋塘浜",31.3082134645856,120.667630365607,"heavy_rail",2024
206,"惹云桥",31.3081970213484,120.659939759064,"heavy_rail",2024
207,"徐家浜",31.3078947537943,120.647422130446,"heavy_rail",2024
208,"望星桥苏大",31.3045820659395,120.63112187338,"heavy_rail",2024
209,"临顿路",31.3106333636396,120.626379766191,"heavy_rail",2024
210,"悬桥巷",31.3164715466145,120.624961364526,"heavy_rail",2024
211,"拙政园苏博",31.3246283577412,120.622996833305,"heavy_rail",2024
212,"梅巷",31.3377715851687,120.626503764091,"heavy_rail",2024
213,"平河路",31.3398072664241,120.610745864269,"heavy_rail",2024
214,"苏锦",31.3385960953378,120.600579648895,"heavy_rail",2024
215,"江星桥南",31.3379524596885,120.591991851577,"heavy_rail",2024
216,"清山桥浜",31.3345672679579,120.58298339726,"heavy_rail",2024
217,"虎丘",31.3321026423126,120.57512272993,"heavy_rail",2024
218,"金鸡墩",31.33571268661,120.563303199237,"heavy_rail",2024
219,"白洋湾公园",31.3421143269668,120.556597687267,"heavy_rail",2024
220,"长泾",31.3499020036713,120.550044155142,"heavy_rail",2024
221,"富强",31.3587859117899,120.539922092716,"heavy_rail",2024
222,"保丰",31.3680781373169,120.530892017148,"heavy_rail",2024
223,"苏州新区火车站",31.3757395993329,120.522996115363,"heavy_rail",2024
224,"新元",31.3282455528949,120.541485037454,"heavy_rail",2024
225,"时家桥",31.3374507625391,120.550783559451,"heavy_rail",2024
226,"虎北路",31.3501380144045,120.561553794211,"heavy_rail",2024
227,"虎丘湿地公园",31.3636572348655,120.586029754469,"heavy_rail",2024
228,"御窑",31.3644664197377,120.60514062035,"heavy_rail",2024
229,"陆慕古巷",31.3651305013302,120.616165129926,"heavy_rail",2024
230,"阳澄湖中路",31.3659186949799,120.623754992128,"heavy_rail",2024
231,"夏圩",31.3669527033502,120.634171832331,"heavy_rail",2024
232,"白荡北",31.3694297203259,120.64332544226,"heavy_rail",2024
233,"五潨泾",31.375045094452,120.656274639551,"heavy_rail",2024
234,"古香圩",31.3750790471939,120.666741286469,"heavy_rail",2024
235,"南泽庄",31.351137666704,120.669149055516,"heavy_rail",2024
236,"古楼",31.3477734020514,120.697597359759,"heavy_rail",2024
237,"华池浜",31.3325913572622,120.708206719762,"heavy_rail",2024
238,"苏州当代美术馆",31.3189569745379,120.709624149812,"heavy_rail",2024
239,"琼姬墩",31.3113725369707,120.721449458436,"heavy_rail",2024
240,"莲池桥",31.2881868503763,120.729759768534,"heavy_rail",2024
241,"仁爱路",31.2772099549772,120.731316114905,"heavy_rail",2024
242,"松涛街",31.2656617887049,120.73657343877,"heavy_rail",2024
243,"裕新路",31.2578022229248,120.739515689388,"heavy_rail",2024
244,"车坊",31.2499856002592,120.742496626301,"heavy_rail",2024
245,"枫津路",31.2454097300278,120.63280965247,"heavy_rail",2024
246,"金家桥南",31.2435423624558,120.641791572738,"heavy_rail",2024
247,"尹山",31.2433693885505,120.662283751821,"heavy_rail",2024
248,"郭巷",31.2515129081876,120.669615253895,"heavy_rail",2024
249,"林家潭",31.2592868298017,120.669984026168,"heavy_rail",2024
250,"通园路南",31.2713001282263,120.664323518284,"heavy_rail",2024
251,"群力",31.2819742338908,120.662587463233,"heavy_rail",2024
252,"娄葑",31.2912758858529,120.661138357464,"heavy_rail",2024
253,"黄天荡",31.2994465083039,120.660217112966,"heavy_rail",2024
254,"惹云桥",31.3085436874608,120.658501442862,"heavy_rail",2024
255,"积翠桥",31.3230858446372,120.656078333036,"heavy_rail",2024
256,"洋泾",31.3361512281544,120.653187634467,"heavy_rail",2024
257,"板泾",31.3428902849966,120.652067431313,"heavy_rail",2024
258,"白荡南",31.3563747489708,120.646821451728,"heavy_rail",
259,"华元路东",31.3791303356771,120.641510571253,"heavy_rail",2024
260,"春申湖东路",31.3847016336243,120.640546010638,"heavy_rail",2024
261,"蠡塘河路",31.3919148838577,120.640413605005,"heavy_rail",2024
262,"登云",31.4032059090537,120.642179279205,"heavy_rail",2024
263,"常楼",31.4139559558429,120.648956915654,"heavy_rail",2024
264,"雪南",31.4231339130989,120.64919530449,"heavy_rail",
265,"朱泾",31.4325452281731,120.629624999548,"heavy_rail",
266,"莫阳",31.431800930893,120.615736611097,"heavy_rail",
267,"太阳路",31.4200303403491,120.611515842267,"heavy_rail",
268,"莫阳",31.4317988790867,120.612405759279,"heavy_rail",
269,"漕湖大道",31.4475112238363,120.618104537891,"heavy_rail",
270,"观塘路",31.4640969920646,120.620408617782,"heavy_rail",
271,"朗力福大道",31.4513485956718,120.65542084379,"heavy_rail",
272,"渭中路",31.4626326629226,120.655609661139,"heavy_rail",
273,"珍珠湖路",31.4699784337543,120.656507950579,"heavy_rail",
274,"爱格豪路",31.4776679793788,120.657392656853,"heavy_rail",
275,"石港路",31.4374427397565,120.589339366753,"heavy_rail",
276,"永昌路",31.4432835154489,120.570265378285,"heavy_rail",
277,"春光路",31.4399336042012,120.557210439204,"heavy_rail",
278,"春秋路",31.4277651781327,120.550687918131,"heavy_rail",
279,"太东路",31.4384313175413,120.670587297842,"heavy_rail",
280,"国际会展中心",31.4279936643351,120.651359971781,"heavy_rail",
281,"高铁苏州北站",31.4251442729735,120.637387881469,"heavy_rail",
282,"珍珠湖路",31.4654636483683,120.677974574283,"heavy_rail",
283,"高铁北城",31.5178697478396,120.684678428505,"heavy_rail",
284,"辛庄",31.5390009365678,120.697589222587,"heavy_rail",
285,"昆承湖西",31.5760054917136,120.71091721158,"heavy_rail",
286,"招商北路",31.629540435372,120.737002394229,"heavy_rail",
287,"花溪",31.6290214698375,120.757190869042,"heavy_rail",
288,"会展中心",31.6550211527252,120.770478385351,"heavy_rail",
289,"长江路",31.6719511483011,120.76710537264,"heavy_rail",
290,"常熟站",31.6976038842553,120.775445267712,"heavy_rail",
291,"海虞",31.7382739972364,120.775431398486,"heavy_rail",
292,"鹿苑",31.8569402280687,120.627841926486,"heavy_rail",
293,"张家港站",31.8193531388755,120.668978732286,"heavy_rail",
294,"蒋乘路",31.8675208112562,120.585437614025,"heavy_rail",
295,"华昌路",31.8735341299192,120.564703458765,"heavy_rail",
296,"杨舍",31.8793666617928,120.543259823106,"heavy_rail",
297,"国泰中路",31.8878793684689,120.519890021952,"heavy_rail",
298,"后塍",31.9245803642326,120.429812322491,"heavy_rail",
299,"金港",31.9429948579272,120.379066632113,"heavy_rail",
300,"狮子山",31.2975705724701,120.543859796999,"tram",2014
301,"新区公园",31.3072196521106,120.530419653597,"tram",2014
302,"何山路",31.3062680983786,120.517966409915,"tram",2014
303,"白马涧生态园",31.3125683925968,120.49739241115,"tram",2014
304,"马涧路",31.3178177175822,120.488735562492,"tram",2014
305,"阳山南",31.3225836391421,120.46469328278,"tram",2014
306,"高新区管委会",31.3326265318725,120.433671853976,"tram",2014
307,"科技城",31.3353952702588,120.427324941067,"tram",2014
308,"龙山路",31.3383393498491,120.420518607394,"tram",2014
309,"嘉陵江路",31.3439984891145,120.406605265302,"tram",2014
310,"龙康路",31.3468175665152,120.394648181225,"tram",2014
311,"绣岸",31.346562312833,120.345105922264,"tram",2018
312,"绣品街北",31.3442085805387,120.339318059322,"tram",2018
313,"石帆",31.3420474462984,120.332877757438,"tram",2018
314,"西洋山",31.3268336049273,120.331569222394,"tram",2018
315,"航船浜",31.3603578691491,120.397139955603,"tram",2018
316,"漓江路",31.3590927755828,120.407469399798,"tram",2018
317,"恩顾山",31.3566440370063,120.420097845127,"tram",2018
318,"白龙桥",31.3504553501251,120.435394648968,"tram",2018
319,"树山",31.3605597274898,120.445859782058,"tram",2018
320,"通安",31.3721910002894,120.457406483531,"tram",2018
321,"华通花园南",31.375506171277,120.470772736885,"tram",2018
322,"建通桥",31.3776817926926,120.483565059023,"tram",2018
323,"虎疁",31.3794131878933,120.492115369209,"tram",2018
324,"兴贤桥北",31.3726977449539,120.502858797944,"tram",2018
325,"鸿福路",31.3663689343464,120.508407042775,"tram",2018
326,"文昌路",31.3576325065193,120.519426280261,"tram",2018
327,"苏州新区火车站",31.3724340946804,120.520059778927,"tram",2018
328,"龙康路",31.3476927718424,120.395720046188,"tram",2018
329,"龙塘港路",31.3592778771901,120.389023226338,"tram",2023
330,"南京大学东",31.3568954228435,120.381016299422,"tram",2023
