"nodeID","nodeLabel","latitude","longitude","mode","year"
1,"Taipei Zoo",24.9983055092963,121.579437482163,"light_rail",1996
2,"Muzha",24.9982512939033,121.573174701437,"light_rail",1996
3,"Wanfang Community",24.9986096685113,121.568110813875,"light_rail",1996
4,"Wanfang Hospital",24.9994362470768,121.558126854041,"light_rail",1996
5,"Xinhai",25.0054879970029,121.557065576608,"light_rail",1996
6,"Linguang",25.0184430822664,121.558891264702,"light_rail",1996
7,"Liuzhangli",25.0238232680596,121.553118048878,"light_rail",1996
8,"Technology Building",25.0261119109391,121.543463430014,"light_rail",1996
9,"Daan",25.0329992444045,121.543597287935,"light_rail",1996
10,"Zhongxiao Fuxing",25.040993139626,121.543768603688,"light_rail",1996
11,"Nanjing Fuxing",25.0523279209931,121.544048719335,"light_rail",1996
12,"Zhongshan Junior High School",25.0607033183904,121.54420650767,"light_rail",1996
13,"Songshan Airport",25.0630388733686,121.551678633172,"light_rail",2009
14,"Dazhi",25.0794571710723,121.546841977947,"light_rail",2009
15,"Jiannan Road",25.0848585180577,121.555680386975,"light_rail",2009
16,"Xihu",25.082182615997,121.567407735177,"light_rail",2009
17,"Gangqian",25.080083113582,121.575282434498,"light_rail",2009
18,"Wende",25.0785537639791,121.585001725614,"light_rail",2009
19,"Neihu",25.0833265628566,121.593996967955,"light_rail",2009
20,"Dahu Park",25.0838176279027,121.602275783974,"light_rail",2009
21,"Huzhou",25.0726872260089,121.607253334032,"light_rail",2009
22,"Donghu",25.0675421496867,121.611669096725,"light_rail",2009
23,"Nangang Software Park",25.059917284025,121.615917370667,"light_rail",2009
24,"Taipei Nangang Exhibition Center",25.0553039327868,121.617840331151,"light_rail",2009
25,"Tamsui",25.1675356725566,121.445883143432,"heavy_rail",1997
26,"Hongshulin",25.1543925122234,121.458830930364,"heavy_rail",1997
27,"Zhuwei",25.1369639125491,121.459514514231,"heavy_rail",1997
28,"Guandu",25.1257331098538,121.467166810231,"heavy_rail",1997
29,"Zhongyi",25.1308052183477,121.473209879088,"heavy_rail",1997
30,"Fuxinggang",25.1374665640367,121.485323688792,"heavy_rail",1997
31,"Beitou",25.1318127198491,121.498593424305,"heavy_rail",1997
32,"Xinbeitou",25.1369467446061,121.502565268015,"heavy_rail",1997
33,"Qiyan",25.1255574984218,121.501124278347,"heavy_rail",1997
34,"Qilian",25.1208632770822,121.50623,"heavy_rail",1997
35,"Shipai",25.1145146895063,121.515560727168,"heavy_rail",1997
36,"Mingde",25.1098630975551,121.518753483335,"heavy_rail",1997
37,"Zhishan",25.1030468323113,121.52251000352,"heavy_rail",1997
38,"Shilin",25.09349525062,121.526219875521,"heavy_rail",1997
39,"Jiantan",25.0843297370111,121.524971299233,"heavy_rail",1997
40,"Yuanshan",25.0713655708002,121.520133688376,"heavy_rail",1997
41,"Minquan West Road",25.0620405760452,121.5196759236,"heavy_rail",1997
42,"Shuanglian",25.0576055604406,121.52069704439,"heavy_rail",1997
43,"Zhongshan",25.0526238688941,121.520380618795,"heavy_rail",1997
44,"Taipei Main Station",25.0473659259936,121.518157313232,"heavy_rail",1997
45,"NTU Hospital",25.0416166031591,121.516176658167,"heavy_rail",1998
46,"Chiang Kai-shek Memorial Hall",25.0336541643192,121.517689410399,"heavy_rail",1998
47,"Nanshijiao",24.9899365433533,121.508924745367,"heavy_rail",1998
48,"Jingan",24.9937952851189,121.505061531,"heavy_rail",1998
49,"Yongan Market",25.002448640536,121.510867851752,"heavy_rail",1998
50,"Dingxi",25.0136096753327,121.515471700165,"heavy_rail",1998
51,"Guting",25.026602739837,121.522889722313,"heavy_rail",1998
52,"Chiang Kai-shek Memorial Hall",25.0335555316549,121.517524455919,"heavy_rail",2013
53,"Guting",25.026508938689,121.522814546294,"heavy_rail",1998
54,"Xindian",24.9580781806768,121.53763469877,"heavy_rail",1999
55,"Xindian District Office",24.9674005983885,121.541358978787,"heavy_rail",1999
56,"Qizhang",24.9750325292944,121.542923038304,"heavy_rail",1999
57,"Xiaobitan",24.9717448741445,121.530625152994,"heavy_rail",2004
58,"Dapinglin",24.9829933160437,121.541326301423,"heavy_rail",1999
59,"Jingmei",24.9929913102667,121.540830211212,"heavy_rail",1999
60,"Wanlong",25.0019129115437,121.538993714747,"heavy_rail",1999
61,"Gongguan",25.0148597681773,121.53422812672,"heavy_rail",1999
62,"Taipower Building",25.0205447208007,121.528348901737,"heavy_rail",1999
63,"Kunyang",25.0504817759482,121.593278679494,"heavy_rail",2000
64,"Houshanpi",25.0447052360028,121.582292354412,"heavy_rail",2000
65,"Yongchun",25.0408571755963,121.575697714367,"heavy_rail",2000
66,"Taipei City Hall",25.041125397509,121.566063074936,"heavy_rail",1999
67,"Sun Yat-sen Memorial Hall",25.0413643913867,121.557352495869,"heavy_rail",1999
68,"Zhongxiao Dunhua",25.0415413562973,121.548773242134,"heavy_rail",1999
69,"Zhongxiao Fuxing",25.0416606559411,121.543714622989,"heavy_rail",1999
70,"Zhongxiao Xinsheng",25.0423873544165,121.53282213041,"heavy_rail",1999
71,"Shandao Temple",25.044762644137,121.52335446533,"heavy_rail",1999
72,"Taipei Main Station",25.0463064457254,121.516929762262,"heavy_rail",1999
73,"Ximen",25.0426682993546,121.50857248571,"heavy_rail",1999
74,"Longshan Temple",25.035287964178,121.499571334586,"heavy_rail",1999
75,"Jiangzicui",25.0304123876522,121.472768323407,"heavy_rail",2000
76,"Xinpu",25.0234298540341,121.4682833821,"heavy_rail",2000
77,"Nangang",25.0518213629102,121.604295752204,"heavy_rail",2008
78,"Taipei Nangang Exhibition Center",25.0545774632051,121.617252548714,"heavy_rail",2011
79,"Banqiao",25.014494412158,121.462972633672,"heavy_rail",2006
80,"Fuzhong",25.0087586374825,121.459273953515,"heavy_rail",2006
81,"Far Eastern Hospital",24.9975157454412,121.452359454926,"heavy_rail",2006
82,"Haishan",24.985694638791,121.448832125299,"heavy_rail",2006
83,"Tucheng",24.9731806212382,121.444393955188,"heavy_rail",2006
84,"Yongning",24.9664496137564,121.435688295055,"heavy_rail",2006
85,"Dingpu",24.9597782206036,121.419459608497,"heavy_rail",2015
86,"Songshan",25.0500534743894,121.576848069365,"heavy_rail",2014
87,"Nanjing Sanmin",25.0514141529094,121.564271253663,"heavy_rail",2014
88,"Taipei Arena",25.0516943206575,121.551473227758,"heavy_rail",2014
89,"Nanjing Fuxing",25.0519013770888,121.543006119447,"heavy_rail",2014
90,"Songjiang Nanjing",25.0520599638858,121.532521472871,"heavy_rail",2014
91,"Zhongshan",25.0527432257309,121.519914428061,"heavy_rail",2014
92,"Beimen",25.0494712349472,121.510331704972,"heavy_rail",2014
93,"Ximen",25.0426226985043,121.508734583663,"heavy_rail",2000
94,"Xiaonanmen",25.0359231964406,121.510884375471,"heavy_rail",2000
95,"Dongmen",25.0338311105017,121.528635802519,"heavy_rail",2013
96,"Daan Park",25.0335488661604,121.535329984236,"heavy_rail",2013
97,"Daan",25.0333945882166,121.542958388323,"heavy_rail",2013
98,"Xinyi Anhe",25.033177278114,121.552724839386,"heavy_rail",2013
99,"Taipei 101-World Trade Center",25.0329494595728,121.562825443993,"heavy_rail",2013
100,"Xiangshan",25.0328568550724,121.569808696991,"heavy_rail",2013
101,"Dongmen",25.033953247993,121.528648326484,"heavy_rail",2012
102,"Zhongxiao Xinsheng",25.0416570162254,121.532844858876,"heavy_rail",2010
103,"Songjiang Nanjing",25.0519554150963,121.533036766491,"heavy_rail",2010
104,"Xingtian Temple",25.0594140167221,121.533179241698,"heavy_rail",2010
105,"Zhongshan Elementary School",25.0626722618214,121.526568968021,"heavy_rail",2010
106,"Minquan West Road",25.0628681698137,121.520057400024,"heavy_rail",2010
107,"Daqiaotou",25.0632186772535,121.512681838643,"heavy_rail",2010
108,"Taipei Bridge",25.063175215836,121.500538869542,"heavy_rail",2012
109,"Cailiao",25.0599938147856,121.491715614049,"heavy_rail",2012
110,"Sanchong",25.0557068032862,121.484160846813,"heavy_rail",2012
111,"Xianse Temple",25.0464197723716,121.471665439778,"heavy_rail",2012
112,"Touqianzhuang",25.0394945459977,121.461373909022,"heavy_rail",2012
113,"Xinzhuang",25.0361240577679,121.452352652783,"heavy_rail",2012
114,"Fu Jen University",25.032794901335,121.435703190844,"heavy_rail",2012
115,"Danfeng",25.0289204204553,121.422637945321,"heavy_rail",2013
116,"Huilong",25.0221488874814,121.411971286568,"heavy_rail",2013
117,"Sanchong Elementary School",25.0700135055373,121.497287623096,"heavy_rail",2010
118,"Sanhe Junior High School",25.0768189831279,121.486357698039,"heavy_rail",2010
119,"St Ignatius High School",25.0803446550305,121.480206142837,"heavy_rail",2010
120,"Sanmin Senior High School",25.0855100742378,121.473288056464,"heavy_rail",2010
121,"Luzhou",25.0912799901731,121.46509758011,"heavy_rail",2010
122,"Dapinglin",24.9829318320921,121.542225729608,"light_rail",2020
123,"Shisizhang",24.9844086469375,121.527660037471,"light_rail",2020
124,"Xiulang Bridge",24.9903213414597,121.52499368775,"light_rail",2020
125,"Jingping",24.9921333462447,121.516225198507,"light_rail",2020
126,"Jingan",24.9933991355273,121.505693695582,"light_rail",2020
127,"Zhonghe",25.0023554508641,121.496203453438,"light_rail",2020
128,"Qiaohe",25.0046106879828,121.490243364028,"light_rail",2020
129,"Zhongyuan",25.0081733696011,121.484272635609,"light_rail",2020
130,"Banxin",25.0145264182608,121.472402341236,"light_rail",2020
131,"Banqiao",25.0151790955032,121.464604711849,"light_rail",2020
132,"Xinpu Minsheng",25.0260212084506,121.466720340508,"light_rail",2020
133,"Touqianzhuang",25.039913355935,121.460314471654,"light_rail",2020
134,"Xingfu",25.0499116361471,121.4599743941,"light_rail",2020
135,"New Taipei Industrial Park",25.0611787942939,121.459803265757,"light_rail",2020
136,"Hongshulin",25.1554821072959,121.458918096062,"light_rail",2019
137,"Ganzhenlin",25.1622012942104,121.456222232697,"light_rail",2019
138,"Danjin Denggong",25.1691345109003,121.46084276292,"light_rail",2019
139,"Tamkang University",25.1771709654547,121.455920656997,"light_rail",2019
140,"Danjin Beixin",25.1810853977798,121.45233720023,"light_rail",2019
141,"Xinshi 1st Road",25.1837118526643,121.448333420861,"light_rail",2019
142,"Tamsui District Office",25.1889785801686,121.444443261508,"light_rail",2019
143,"Binhai Yishan",25.1897361613425,121.437351213392,"light_rail",2019
144,"Binhai Shalun",25.1904770216313,121.431546290348,"light_rail",2019
145,"Danhai New Town",25.1959467822396,121.432548357776,"light_rail",2019
146,"Kanding",25.2009206083017,121.43460457212,"light_rail",2019
147,"Taipei University of Marine Technology",25.1911588489621,121.426345209025,"light_rail",2021
148,"Shalun",25.1874578437215,121.417195661555,"light_rail",2021
149,"Tamsui Fisherman's Wharf",25.1820521899092,121.418670026612,"light_rail",2021
150,"Shuangcheng",24.9428697059589,121.487002728452,"light_rail",2023
151,"Rose China Town",24.9507652764319,121.493870283632,"light_rail",2023
152,"Taipei Xiaocheng",24.9536847548546,121.499357388076,"light_rail",2023
153,"Cardinal Tien Hospital Ankang Branch",24.954425537988,121.50421482501,"light_rail",2023
154,"Jinwen University of Science and Technology",24.955526231017,121.510425542477,"light_rail",2023
155,"Ankang",24.9656550228875,121.51740473751,"light_rail",2023
156,"Sunrise Sports Park",24.9722129960577,121.519473156592,"light_rail",2023
157,"Xinhe Elementary School",24.9841448643222,121.520044694312,"light_rail",2023
158,"Shisizhang",24.9843379428144,121.527296653221,"light_rail",2023
159,"Dingpu",24.9591202007239,121.418525717093,"light_rail",2024
160,"Mazutian",24.9542355550742,121.412689399339,"light_rail",2024
161,"Changshoushan",24.9442068201019,121.402655280594,"light_rail",2024
162,"Hengxi",24.9376795233741,121.391549657658,"light_rail",2024
163,"Longpu",24.9398476416912,121.384600353985,"light_rail",2024
164,"Sanxia",24.9389119866997,121.37646601761,"light_rail",2024
165,"National Taipei University",24.9389792283376,121.367059284743,"light_rail",2024
166,"Yingge",24.9524183424073,121.355121578065,"light_rail",2024
167,"Ceramics Old Street",24.9525035187146,121.349647379867,"light_rail",2024
168,"Guohua",24.9545498707358,121.342446244294,"light_rail",2024
169,"Yongji Park",24.96080337182,121.334533595685,"light_rail",2024
170,"Yingtao Fude",24.9668709221433,121.329974358845,"light_rail",2024
171,"Taipei Main Station",25.0487142129897,121.514326275514,"commuter_rail",2017
172,"Sanchong",25.0546998327709,121.482876902367,"commuter_rail",2017
173,"New Taipei Industrial Park",25.0616996606599,121.458879999941,"commuter_rail",2017
174,"Xinzhuang Fuduxin",25.0592000357362,121.4457772484,"commuter_rail",2017
175,"Taishan",25.0532289410505,121.439524947458,"commuter_rail",2017
176,"Taishan Guihe",25.0332516055177,121.422791638207,"commuter_rail",2017
177,"National Taiwan Sport University",25.0413451772174,121.385407222317,"commuter_rail",2017
178,"Chang Gung Memorial Hospital",25.060517904709,121.370756426171,"commuter_rail",2017
179,"Linkou",25.0657780084121,121.36143299835,"commuter_rail",2017
180,"Shanbi",25.080762687552,121.285222397319,"commuter_rail",2017
181,"Kengkou",25.0863979802193,121.266531050654,"commuter_rail",2017
182,"Airport Terminal 1",25.0804867095099,121.238364084538,"commuter_rail",2017
183,"Airport Terminal 2",25.077207389636,121.232220078451,"commuter_rail",2017
184,"Airport Terminal 3",25.0735413350902,121.227579050644,"commuter_rail",2024
185,"Airport Hotel",25.0691044083979,121.220527927631,"commuter_rail",2017
186,"Dayuan",25.0558051778381,121.210656436832,"commuter_rail",2017
187,"Hengshan",25.0364735088804,121.215805013478,"commuter_rail",2017
188,"Linghang",25.0240906690829,121.221103926486,"commuter_rail",2017
189,"Taoyuan HSR Station",25.0136965553754,121.214124199167,"commuter_rail",2017
190,"Taoyuan Sports Park",25.0017248281892,121.203276586885,"commuter_rail",2017
191,"Xingnan",24.980006517754,121.216403098971,"commuter_rail",2017
192,"Huanbei",24.9671463768325,121.220797081274,"commuter_rail",2017
193,"Laojie River",24.9585759397309,121.219411805162,"commuter_rail",2022
194,"Guangci/Fengtian Temple",25.0373348591705,121.581969508718,"heavy_rail",2024
195,"Chiang Kai-shek Memorial Hall",25.0324967504035,121.516796349949,"light_rail",2025
196,"Taipei Botanical Garden",25.0308613195293,121.510246268859,"light_rail",2025
197,"Xiaan",25.0302120961607,121.505129887943,"light_rail",2025
198,"Kalah",25.0220238856845,121.498975444236,"light_rail",2025
199,"Yonghe Yongping Elementary School",25.0085392867702,121.505420354866,"light_rail",2025
200,"Zhonghe",25.0004301726017,121.496800154516,"light_rail",2025
201,"Liancheng Jinhe",24.996225929568,121.486610804192,"light_rail",2025
202,"Zhonghe Senior High School",24.9947326442101,121.479803015555,"light_rail",2025
203,"Juguang",24.9941550133778,121.470227270642,"light_rail",2025
204,"Taipei Zoo",24.9977421543072,121.578724516338,"light_rail",2029
205,"National Chengchi University",24.9883789228677,121.577100308855,"light_rail",2029
206,"Wenshan District Office",24.9901742240673,121.570843713803,"light_rail",2029
207,"Gouzikou",24.9877309535177,121.551757318314,"light_rail",2029
208,"Ma Mingtan",24.9887967427867,121.561123904864,"light_rail",2029
209,"Baodoucuo",24.9836223351654,121.549763159299,"light_rail",2029
210,"Zhongli",24.9528212938482,121.226107894845,"commuter_rail",2028
211,"Bade",24.9299385878421,121.281112512375,"light_rail",2025
212,"Jianguo Rd.",24.9374069642515,121.289454491361,"light_rail",2025
213,"Mayuan",24.9426590548668,121.297460844119,"light_rail",2025
214,"Danan",24.9558835129978,121.29890816586,"light_rail",2025
215,"Zhongyong West Street",24.9684904580127,121.301261102388,"light_rail",2025
216,"Yangming Park",24.9808623191592,121.306233416706,"light_rail",2025
217,"Taoyuan Main",24.9890834417052,121.313576471497,"light_rail",2025
218,"Yonghe Market",24.9967014606539,121.309798055131,"light_rail",2025
219,"Minguang Rd.",25.0035986454642,121.305438270825,"light_rail",2025
220,"Daxing West Road",25.0127918144393,121.300061781937,"light_rail",2025
221,"Taoyuan Performance Arts Center",25.017027762331,121.298096810865,"light_rail",2025
222,"Nankan Bus Station",25.028354371159,121.292797597936,"light_rail",2025
223,"Nanzhu",25.0383012538328,121.28312278759,"light_rail",2025
224,"Luzhu Industrial Park",25.051651704082,121.27581726593,"light_rail",2025
225,"Changxing",25.0623065178953,121.267409621806,"light_rail",2025
226,"Guolin",25.0805731710716,121.260920039957,"light_rail",2025
227,"Kengkou",25.0858762989602,121.265641971837,"light_rail",2025
228,"Nangang",25.0526468793616,121.606018145255,"high_speed_rail",2007
229,"Taipei",25.0476194163669,121.516500936445,"high_speed_rail",2007
230,"Banqiao",25.0136299542067,121.46414100319,"high_speed_rail",2007
231,"Taoyuan",25.013005290776,121.214864815956,"high_speed_rail",2007
232,"New Taipei City Exhibition Hall",25.0675076896845,121.452812481632,"light_rail",2029
233,"Gengliao",25.0748852478296,121.4609461208,"light_rail",2029
234,"Zhonglu",25.0771960542468,121.469370434489,"light_rail",2029
235,"Saint Ignatius High School",25.0815068184845,121.479994496857,"light_rail",2029
236,"Fenziwei",25.0890613254693,121.486255855758,"light_rail",2029
237,"Chongyang Bridge",25.0879215314957,121.493245197249,"light_rail",2029
238,"Shezi",25.0875966264242,121.510687543351,"light_rail",2029
239,"Fudeyang",25.0931408138341,121.519655883664,"light_rail",2029
240,"Shilin",25.0953021009863,121.525759243775,"light_rail",2029
241,"Linzikou",25.0963203379563,121.531008535929,"light_rail",2029
242,"National Palace Museum",25.098541947937,121.547342185275,"light_rail",2029
243,"Jiannan Road",25.0848855227176,121.554833141271,"light_rail",2029
