"nodeID","nodeLabel","latitude","longitude","mode","year"
1,"Big Lake",45.3299533699271,-93.7303518281934,"commuter_rail",2009
2,"Elk River",45.2825850090249,-93.542256923577,"commuter_rail",2009
3,"Ramsey",45.231884002152,-93.4614804097162,"commuter_rail",2012
4,"Anoka",45.207812946397,-93.3843225152095,"commuter_rail",2009
5,"Coon Rapids-Riverdale",45.1908698351195,-93.3512982038305,"commuter_rail",2009
6,"Fridley",45.0788727841298,-93.2708868807245,"commuter_rail",2009
7,"Target Field",44.9830468933929,-93.2774752478128,"commuter_rail",2009
8,"Target Field",44.9835100795983,-93.278694196514,"light_rail",2009
9,"Warehouse District/Hennepin Avenue",44.9808030870217,-93.274191763149,"light_rail",2004
10,"Nicollet Mall",44.9786013574363,-93.2700052526208,"light_rail",2004
11,"Government Plaza",44.9768343736578,-93.2659595936483,"light_rail",2004
12,"U.S. Bank Stadium",44.9749310650355,-93.2600739481788,"light_rail",2004
13,"Cedar-Riverside",44.9681267355245,-93.2508781443827,"light_rail",2004
14,"Franklin Avenue",44.9626203798603,-93.2471098036431,"light_rail",2004
15,"Lake Street/Midtown",44.9483544550563,-93.2388970894512,"light_rail",2004
16,"38th St.",44.9347112060535,-93.2295166348008,"light_rail",2004
17,"46th St.",44.9208289289441,-93.2199307701497,"light_rail",2004
18,"50th Street/Minnehaha Park",44.9122412572926,-93.2099890824287,"light_rail",2004
19,"VA Medical Center",44.9029639599437,-93.2023554225303,"light_rail",2004
20,"Fort Snelling",44.8933132521786,-93.1980707833362,"light_rail",2004
21,"Terminal 1-Lindbergh",44.881226305445,-93.2062250183862,"light_rail",2004
22,"Terminal 2-Humphrey",44.8742291018418,-93.2242621460327,"light_rail",2004
23,"American Boulevard",44.8587278027144,-93.2231862448231,"light_rail",2009
24,"Bloomington Central",44.8563808579675,-93.2267234745437,"light_rail",2004
25,"28th Avenue",44.8558099752674,-93.2316659899335,"light_rail",2004
26,"Mall of America",44.8547091056038,-93.2393423894661,"light_rail",2004
27,"Union Station",44.9481909175573,-93.0867809637161,"light_rail",2014
28,"Central",44.9461852355748,-93.0922474359627,"light_rail",2014
29,"10th Street",44.9506131002864,-93.0975527753945,"light_rail",2014
30,"Robert Street",44.9540806860858,-93.0975225543001,"light_rail",2014
31,"Capitol/Rice Street",44.955709653272,-93.105315773101,"light_rail",2014
32,"Western Avenue",44.9557740229573,-93.114438619063,"light_rail",2014
33,"Dale Street",44.9557418398114,-93.1262964055627,"light_rail",2014
34,"Victoria Street",44.9557569576597,-93.1365288074611,"light_rail",2014
35,"Lexington Parkway",44.9557342320994,-93.1466560086155,"light_rail",2014
36,"Hamline Avenue",44.9557131505977,-93.1568704868908,"light_rail",2014
37,"Snelling Avenue",44.9556780403036,-93.1670302914222,"light_rail",2014
38,"Fairview Avenue",44.9563879412771,-93.1786535840875,"light_rail",2014
39,"Raymond Avenue",44.9631191965826,-93.1955406406755,"light_rail",2014
40,"Westgate",44.9674920426188,-93.2065199481806,"light_rail",2014
41,"Prospect Park",44.9716549074246,-93.2152709495063,"light_rail",2014
42,"Stadium Village",44.9747209714717,-93.2228903141168,"light_rail",2014
43,"East Bank",44.973668361259,-93.2311965067886,"light_rail",2014
44,"West Bank",44.9719611381931,-93.2461923049266,"light_rail",2014
45,"Apple Valley Transit Center",44.7256595872765,-93.2177536007955,"brt",2013
46,"147th St.",44.7369694899949,-93.2177050740612,"brt",2013
47,"140th St.",44.7483167188744,-93.2177644022512,"brt",2013
48,"Cedar Grove",44.8125773031528,-93.2198177448154,"brt",2013
49,"Mall of America",44.8535836329342,-93.2382804044054,"brt",2013
50,"Rosedale Transit Center",45.0125524641821,-93.1682566348505,"brt",2016
51,"Snelling & County Rd. B",45.0050779701558,-93.166529966361,"brt",2016
52,"Snelling & Larpenteur",44.9917864187564,-93.1666799718424,"brt",2016
53,"Snelling & Hoyt",44.988013742392,-93.1669777450071,"brt",2016
54,"Snelling & Nebraska",44.9864027524512,-93.166927647864,"brt",2016
55,"Snelling & Como",44.9773477858523,-93.1670428115382,"brt",2016
56,"Snelling & Hewitt",44.9664480809747,-93.1670709163694,"brt",2016
57,"Snelling & Minnehaha",44.9629141131644,-93.1670854145574,"brt",2016
58,"Snelling & University",44.9552596681902,-93.1670339783538,"brt",2016
59,"Snelling & Dayton",44.9473848514979,-93.1670402964652,"brt",2016
60,"Snelling & St. Clair",44.9342693903228,-93.1670818259708,"brt",2016
61,"Snelling & Randolph",44.9269766253686,-93.1670618530438,"brt",2016
62,"Snelling & Highland",44.9199299540701,-93.1670548065706,"brt",2016
63,"Ford & Fairview",44.9179762960024,-93.1772444730929,"brt",2016
64,"Ford & Kenneth",44.9179184926739,-93.1848616780197,"brt",2016
65,"Ford & Finn",44.9179263211396,-93.1899774092426,"brt",2016
66,"Ford & Woodlawn",44.9178937559208,-93.1969838471733,"brt",2016
67,"46th St. & 46th Ave.",44.9197400472127,-93.2079270988635,"brt",2016
68,"46th St. & Minnehaha",44.919679802668,-93.2151848362075,"brt",2016
69,"46th St.",44.9205204485508,-93.2201372960636,"brt",2016
70,"7th St & Park",44.9727994377972,-93.2625328130002,"brt",2019
71,"7th St & 3rd/4th Ave",44.9749016447983,-93.2675408331627,"brt",2019
72,"7th St & Nicollet",44.976862885126,-93.2722941173531,"brt",2019
73,"7th St & Hennepin",44.9783685066373,-93.2754011457524,"brt",2019
74,"8th St & Nicollet",44.9758398606673,-93.2728941742309,"brt",2019
75,"8th St & 3rd/4th Ave",44.9739155717335,-93.2683216293373,"brt",2019
76,"Ramp A/7th St Transit Center",44.9783688055382,-93.2781018056086,"brt",2019
77,"Olson & 7th St.",44.9841361492135,-93.2835201361181,"brt",2019
78,"Olson & Bryant",44.9843555298561,-93.2911656933829,"brt",2019
79,"Olson & Humboldt",44.9843721570704,-93.2982534144685,"brt",2019
80,"Olson & Penn",44.9844034138459,-93.3079482652882,"brt",2019
81,"Penn & Plymouth",44.9915195425977,-93.3082614658791,"brt",2019
82,"Penn & Golden Valley",44.9987913177027,-93.3082597543763,"brt",2019
83,"Penn & West Broadway",45.0041318872571,-93.3082788964435,"brt",2019
84,"Penn & 29th Ave.",45.0096650364485,-93.3082661962505,"brt",2019
85,"Penn & Lowry",45.0133806779403,-93.3082484912193,"brt",2019
86,"Penn & 36th Ave.",45.0205547080102,-93.3082837018202,"brt",2019
87,"Penn & Dowling",45.0242106494394,-93.3083473896882,"brt",2019
88,"Penn & 43rd Ave.",45.033338977214,-93.3085396858732,"brt",2019
89,"Brooklyn & 51st Ave.",45.0478101247109,-93.3210187383013,"brt",2019
90,"Xerxes & 56th Ave.",45.0568429189213,-93.3219741550979,"brt",2019
91,"Brooklyn Center Transit Center",45.0595986920271,-93.3185030973661,"brt",2019
92,"Southwest",44.8598598427779,-93.4448425009096,"light_rail",2025
93,"Eden Prarie Town Center",44.8593837425401,-93.4307253497913,"light_rail",2025
94,"Golden Triangle",44.8773533508564,-93.4101525039181,"light_rail",2025
95,"City West",44.8907943492641,-93.4115375821942,"light_rail",2025
96,"Opus",44.8979606836343,-93.4140913365627,"light_rail",2025
97,"Shady Oak",44.9178902812371,-93.4205638204041,"light_rail",2025
98,"Downtown Hopkins",44.9206663374129,-93.40980142692,"light_rail",2025
99,"Blake Road",44.927926042067,-93.3863182252256,"light_rail",2025
100,"Louisiana Avenue",44.9349112580117,-93.3651086656063,"light_rail",2025
101,"Wooddale",44.9386024980792,-93.3550880320031,"light_rail",2025
102,"Beltline Boulevard",44.9439905134537,-93.3387882418374,"light_rail",2025
103,"West Lake St.",44.9478225467492,-93.3242867189192,"light_rail",2025
104,"W. 21st St.",44.9605970923161,-93.3145630766208,"light_rail",2025
105,"Bryn Mawr",44.9678416634893,-93.3098251785272,"light_rail",2025
106,"Bassett Creek Valley",44.9742018355382,-93.2961202000804,"light_rail",2025
107,"Royalston Avenue / Farmers Market",44.9811822801374,-93.283098634743,"light_rail",2025
108,"2nd Ave S & Washington Ave S",44.9800493151236,-93.2658459162115,"brt",2021
109,"Marquette Ave & 3rd St",44.9796940831022,-93.2680961474267,"brt",2021
110,"2nd Ave S & 5th St",44.9775079915691,-93.2679705980432,"brt",2021
111,"Marquette Ave & 5th St",44.9778830805637,-93.26955124108,"brt",2021
112,"Marquette Ave & 7th St",44.9758267256018,-93.2712703018289,"brt",2021
113,"2nd Ave S & 7th St",44.9755261226856,-93.2696188446022,"brt",2021
114,"Marquette Ave & 11th St",44.9719460941703,-93.2745249281214,"brt",2021
115,"2nd Ave S & 11th St",44.9715634824782,-93.2729121014573,"brt",2021
116,"I-35W & Lake St",44.9483402864099,-93.2747256042648,"brt",2021
117,"I-35W & 46th St",44.9196724844898,-93.2747385545943,"brt",2021
118,"I-35W & 66th",44.8834158465349,-93.2958910456046,"brt",2021
119,"Knox Ave & 76th St",44.8639257591385,-93.3023885159931,"brt",2021
120,"Knox Ave & American Blvd",44.8593100790886,-93.3017977893484,"brt",2021
121,"I-35W & 98th St",44.8256955541762,-93.2909577147165,"brt",2021
122,"I-35W & Burnsville Parkway",44.7702377181905,-93.2870265178508,"brt",2021
123,"Burnsville Heart of the City",44.7761771133227,-93.2785318340069,"brt",2021
124,"44th Ave & Penn",45.0354481602396,-93.3082274476786,"brt",2022
125,"44th Ave & Girard",45.0354447134949,-93.296934468057,"brt",2022
126,"Fremont & 42nd Ave",45.0316000541447,-93.2957384892573,"brt",2022
127,"Fremont & Dowling",45.0239663675485,-93.295655952501,"brt",2022
128,"Fremont & 35th Ave",45.0185373333958,-93.2956013087321,"brt",2022
129,"Fremont & Lowry",45.0125614990343,-93.2955570096477,"brt",2022
130,"Emerson & Lowry",45.0128175584528,-93.294317161129,"brt",2022
131,"Emerson & 26th Ave",45.0061001594449,-93.2942173757909,"brt",2022
132,"Fremont & 26th Ave",45.0058736188267,-93.2956522566552,"brt",2022
133,"Fremont & West Broadway",44.9990748898606,-93.2956522566575,"brt",2022
134,"West Broadway & Emerson Ave",44.9994689197216,-93.2941477213816,"brt",2022
135,"Emerson & Plymouth",44.9922857496742,-93.2940895548035,"brt",2022
136,"Plymouth & Fremont",44.991960634481,-93.2952040253798,"brt",2022
137,"7th St & Bryant",44.9894925881325,-93.2908245697551,"brt",2022
138,"7th St & 5th Ave",44.9829233643538,-93.2816236416079,"brt",2022
139,"8th St and Park",44.9719888331419,-93.2638355219639,"brt",2019
140,"8th St & Hennepin",44.9772696674293,-93.2760046984068,"brt",2019
141,"American & Thunderbird",44.859988471002,-93.2431394706204,"brt",2022
142,"American & Bloomington",44.8599121010811,-93.2528540514317,"brt",2022
143,"American & Chicago",44.8598102743989,-93.2642924764479,"brt",2022
144,"Portland & 77th St",44.8641047270671,-93.2681310715289,"brt",2022
145,"Portland & 73rd St",44.8709722990734,-93.2680362843302,"brt",2022
146,"Portland & 70th St",44.8763329409058,-93.2679844923907,"brt",2022
147,"Portland & 66th St",44.8841079338487,-93.2678757875151,"brt",2022
148,"Portland & 60th St",44.8940958720701,-93.2677913199925,"brt",2022
149,"Chicago & 56th St",44.9014576615843,-93.2627080752533,"brt",2022
150,"Chicago & 52nd St",44.9088862889822,-93.2626417374733,"brt",2022
151,"Chicago & 48th St",44.916105486218,-93.2625698432444,"brt",2022
152,"Chicago & 46th St",44.9197479505987,-93.2625355086681,"brt",2022
153,"Chicago & 42nd St",44.9269341169555,-93.2625011164896,"brt",2022
154,"Portland & 38th St",44.9341674035571,-93.2676183105784,"brt",2022
155,"Park & 38th St",44.9341582374253,-93.2650157641796,"brt",2022
156,"Chicago & 34th St",44.9413639644524,-93.2625662048635,"brt",2022
157,"Chicago Lake Transit Center",44.9493770933627,-93.2625744528414,"brt",2022
158,"Chicago & 26th St",44.9555454647441,-93.2625779829458,"brt",2022
159,"Chicago & 24th St",44.9591279741987,-93.2625779829296,"brt",2022
160,"Chicago & Franklin",44.9627194214434,-93.2625650349334,"brt",2022
161,"Chicago & 14th St",44.968897687232,-93.2625573104436,"brt",2022
