"nodeID","nodeLabel","latitude","longitude","mode","year"
1,"Takabata",35.1398697333753,136.853363617324,"heavy_rail",1982
2,"Hatta",35.1486738021039,136.853235240399,"heavy_rail",1982
3,"Iwatsuka",35.1581044057926,136.85440033185,"heavy_rail",1982
4,"Nakamura Kōen",35.1678385105275,136.855179168257,"heavy_rail",1969
5,"Nakamura Nisseki",35.1725121402287,136.861939915027,"heavy_rail",1969
6,"Honjin",35.1772453251309,136.866887493788,"heavy_rail",1969
7,"Kamejima",35.1775578940392,136.876761975587,"heavy_rail",1969
8,"Nagoya",35.1711505837365,136.883933110079,"heavy_rail",1957
9,"Fushimi",35.1692243337111,136.897678554161,"heavy_rail",1957
10,"Sakae",35.1699115999579,136.908012415047,"heavy_rail",1957
11,"Shinsakae-machi",35.1707455997891,136.920246267901,"heavy_rail",1960
12,"Chikusa",35.1706663106344,136.929820210361,"heavy_rail",1960
13,"Imaike",35.1698220957684,136.937787896687,"heavy_rail",1960
14,"Ikeshita",35.1677747968199,136.94624804827,"heavy_rail",1960
15,"Kakuōzan",35.1666221168893,136.953257191572,"heavy_rail",1963
16,"Motoyama",35.1639759230722,136.963525634837,"heavy_rail",1963
17,"Higashiyama Koen (Higashiyama Park)",35.160600106555,136.972789058371,"heavy_rail",1963
18,"Hoshigaoka",35.1624618256578,136.985126839881,"heavy_rail",1967
19,"Issha",35.1682335515242,136.995812072406,"heavy_rail",1969
20,"Kamiyashiro",35.1735143166846,137.006708706525,"heavy_rail",1970
21,"Hongo",35.1753840250291,137.013431736653,"heavy_rail",1969
22,"Fujigaoka",35.1824030148687,137.021327319655,"heavy_rail",1969
23,"Sakae",35.1695743350989,136.908610122406,"heavy_rail",1965
24,"Hisaya-ōdōri",35.1734084438417,136.908179877594,"heavy_rail",1989
25,"Shiyakusho (City Hall)",35.1816244784222,136.905519135168,"heavy_rail",1965
26,"Meijō Kōen",35.1907194701154,136.904765598042,"heavy_rail",1971
27,"Kurokawa",35.1971563200811,136.91017933787,"heavy_rail",1971
28,"Shiga-hondōri",35.1963011607774,136.92121051897,"heavy_rail",1971
29,"Heian-dōri",35.1959088885466,136.929827359902,"heavy_rail",1971
30,"Ōzone",35.1927571244441,136.936210360198,"heavy_rail",1971
31,"Sunadabashi",35.1887645829557,136.954492553345,"heavy_rail",2000
32,"Chayagasaka",35.1846161464877,136.962294712435,"heavy_rail",2003
33,"Jiyūgaoka",35.1752706655955,136.966738918108,"heavy_rail",2003
34,"Motoyama",35.1634159103305,136.963741444123,"heavy_rail",2003
35,"Nagoya Daigaku",35.1547440108445,136.966688636489,"heavy_rail",2003
36,"Yagoto Nisseki",35.144888457397,136.964797430886,"heavy_rail",2004
37,"Yagoto",35.1371412485355,136.964627622275,"heavy_rail",2004
38,"Sōgō Rihabiri Center",35.1307876670366,136.954737242219,"heavy_rail",2004
39,"Mizuho Undōjō Higashi",35.1231269173188,136.948671278247,"heavy_rail",2004
40,"Aratama-bashi",35.117735594149,136.937234708998,"heavy_rail",1974
41,"Myōon-dōri",35.1171265505664,136.929647904612,"heavy_rail",1974
42,"Horita",35.1164997268761,136.921535725113,"heavy_rail",1974
43,"Temma-chō",35.1207890114966,136.910429331202,"heavy_rail",1974
44,"Jingū-Nishi",35.1276523022567,136.906791350113,"heavy_rail",1974
45,"Nishi Takakura",35.134882972211,136.90179506546,"heavy_rail",1974
46,"Kanayama",35.1439128034192,136.901956958779,"heavy_rail",1967
47,"Higashi Betsuin",35.1499348209605,136.904567568499,"heavy_rail",1967
48,"Kamimaezu",35.1576301878013,136.906739479307,"heavy_rail",1967
49,"Yabachō",35.1633770464096,136.90875095563,"heavy_rail",1967
50,"Kanayama",35.1438654078657,136.90192170113,"heavy_rail",2004
51,"Hibino",35.13244982232,136.892889274262,"heavy_rail",1971
52,"Rokuban-chō",35.1240597461622,136.888354372959,"heavy_rail",1971
53,"Tōkai-dōri",35.1135025726009,136.886014265709,"heavy_rail",1971
54,"Minato Kuyakusho",35.1062058215447,136.88449532433,"heavy_rail",1971
55,"Tsukiji-guchi",35.0997137067513,136.883110765908,"heavy_rail",1971
56,"Nagoyakō (Nagoya Port)",35.0929652834273,136.881876420392,"heavy_rail",1971
57,"Heian-dōri",35.1960377591557,136.929785454475,"heavy_rail",2003
58,"Kamiiida",35.2039687506253,136.929655351555,"commuter_rail|heavy_rail",2003
59,"Kami-Otai",35.2235208066341,136.876906847585,"heavy_rail",1993
60,"Shōnai Ryokuchi Kōen",35.2150052886567,136.886629500764,"heavy_rail",1984
61,"Shōnai-dōri",35.2038594315283,136.891008564338,"heavy_rail",1984
62,"Jōshin",35.1921187352521,136.890790642495,"heavy_rail",1981
63,"Sengen-chō",35.183308435875,136.89020806931,"heavy_rail",1981
64,"Marunouchi",35.1749869573011,136.896726432316,"heavy_rail",1981
65,"Fushimi",35.1689386285017,136.897348915831,"heavy_rail",1977
66,"Ōsu Kannon",35.1613785066112,136.89806652324,"heavy_rail",1977
67,"Kamimaezu",35.1574171181664,136.906347593632,"heavy_rail",1977
68,"Tsurumai",35.1561849559575,136.915374992456,"heavy_rail",1977
69,"Arahata",35.1495908931891,136.925345405865,"heavy_rail",1977
70,"Gokiso",35.1495087625648,136.933994250786,"heavy_rail",1977
71,"Kawana",35.1487064160523,136.948317417544,"heavy_rail",1977
72,"Irinaka",35.143807265005,136.954619942075,"heavy_rail",1977
73,"Yagoto",35.1371009508931,136.963735723675,"heavy_rail",1977
74,"Shiogama-guchi",35.13256187536,136.977296891997,"heavy_rail",1978
75,"Ueda",35.128376096994,136.988952761636,"heavy_rail",1978
76,"Hara",35.1259844791313,136.997156656156,"heavy_rail",1978
77,"Hirabari",35.1226863295186,137.0071973545,"heavy_rail",1978
78,"Akaike",35.1210756217136,137.018221468632,"heavy_rail",1978
79,"Nakamura Kuyakusho",35.16762450775,136.873270257565,"heavy_rail",1989
80,"Nagoya",35.1709740821827,136.882946488199,"heavy_rail",1989
81,"Kokusai Sentaa (International Center)",35.1721455518332,136.889606236517,"heavy_rail",1989
82,"Marunouchi",35.173167372907,136.899459523579,"heavy_rail",1989
83,"Hisaya-ōdōri",35.1737499630785,136.907945135432,"heavy_rail",1989
84,"Takaoka",35.1741603997272,136.916932200464,"heavy_rail",1989
85,"Kurumamichi",35.1733148777284,136.930224543758,"heavy_rail",1989
86,"Imaike",35.1685271125392,136.936920938694,"heavy_rail",1989
87,"Fukiage",35.1583679626755,136.935147363152,"heavy_rail",1994
88,"Gokiso",35.1494067723639,136.933628354139,"heavy_rail",1994
89,"Sakurayama",35.1394955607647,136.933404727465,"heavy_rail",1994
90,"Mizuho Kuyakusho",35.1315834493774,136.934500745306,"heavy_rail",1994
91,"Mizuho Undōjō Nishi",35.1246254253548,136.935542667356,"heavy_rail",1994
92,"Aratama-bashi",35.1184361786735,136.936475072121,"heavy_rail",1994
93,"Sakura-hommachi",35.1088714082711,136.936738264737,"heavy_rail",1994
94,"Tsurusato",35.1054954188538,136.944822532989,"heavy_rail",1994
95,"Nonami",35.102635386601,136.954900040161,"heavy_rail",1994
96,"Naruko Kita",35.1026895768561,136.966124778375,"heavy_rail",2011
97,"Aioiyama",35.1025031454182,136.976238779823,"heavy_rail",2011
98,"Kamisawa",35.0986409067595,136.989366222849,"heavy_rail",2011
99,"Tokushige",35.094435656121,136.998143858262,"heavy_rail",2011
100,"Nagoya Dome-mae Yada",35.1909286657758,136.944071004065,"heavy_rail",2000
101,"Ōzone",35.1918310034022,136.937464911942,"brt",2001
102,"Nagoya Dome-mae Yada",35.1902510715356,136.947401889788,"brt",2001
103,"Sunadabashi",35.1888204009506,136.954266645445,"brt",2001
104,"Moriyama",35.1974988596211,136.956530429331,"brt",2001
105,"Kanaya",35.2025771105046,136.956769764653,"brt",2001
106,"Kawamiya",35.2103263359916,136.962065887252,"brt",2001
107,"Kawamura",35.2142137079367,136.968776408268,"brt",2001
108,"Shirasawa Keikoku",35.2159958307264,136.978558028057,"brt",2001
109,"Obata Ryokuchi",35.2188070514649,136.982953157755,"brt",2001
110,"Fujigaoka",35.1820627492959,137.021765314174,"people_mover",2005
111,"Hanamizuki-dōri",35.1776334469559,137.035429043658,"people_mover",2005
112,"Irigaike-kōen",35.1718299213564,137.037850864045,"people_mover",2005
113,"Nagakute Kosenjō",35.1715192245437,137.049496692947,"people_mover",2005
114,"Geidai-dōri",35.1719476689267,137.061037161315,"people_mover",2005
115,"Kōen-nishi",35.1744273444424,137.076800593508,"people_mover",2005
116,"Aichikyūhaku-kinen-kōen (Expo Memorial Park)",35.1776397888678,137.087416755641,,2005
117,"Toji-shiryokan-minami",35.1793091190273,137.097091225198,"people_mover",2005
118,"Yakusa",35.1766724814055,137.106301382458,"people_mover",2005
119,"Owari Seto",35.2249659243491,137.096951918207,"commuter_rail",2002
120,"Seto-Shiyakusho-mae",35.2250521409892,137.084598237632,"commuter_rail",1905
121,"Owari Seto",35.2242205674694,137.094953192441,"commuter_rail",1905
122,"Shin Seto",35.2255934845122,137.078092531126,"commuter_rail",1927
123,"Mizuno",35.2243341992783,137.069768632066,"commuter_rail",1905
124,"Sangō",35.2163847097823,137.05267285153,"commuter_rail",1905
125,"Owari Asahi",35.2167370607549,137.036376865664,"commuter_rail",1905
126,"Asahi-mae",35.2143533278583,137.020054326768,"commuter_rail",1942
127,"Inba",35.2110989747412,137.011210203618,"commuter_rail",1995
128,"Ōmori-Kinjōgakuin-mae",35.2070001042133,136.996548885929,"commuter_rail",1905
129,"Kitayama",35.2054910384596,136.988511871911,"commuter_rail",1927
130,"Obata",35.2002345838038,136.975713664657,"commuter_rail",1905
131,"Hyōtan-yama",35.197202472089,136.964372051186,"commuter_rail",1936
132,"Moriyama-Jieitai-Mae",35.1963227368298,136.957869007921,"commuter_rail",1905
133,"Yada",35.1937466655819,136.947839299885,"commuter_rail",1905
134,"Ōzone",35.191421513197,136.93657606133,,1906
135,"Ōzone",35.1916295326338,136.936878366646,"commuter_rail",1906
136,"Morishita",35.1883358832234,136.92927314347,"commuter_rail",1956
137,"Amagasaka",35.1879190800367,136.919157113271,"commuter_rail",1978
138,"Shimizu",35.1871702912322,136.913719835819,"commuter_rail",1978
139,"Sakaemachi",35.170639209172,136.908825885849,"commuter_rail",1978
140,"Higashiōte",35.1834907611908,136.908471575978,"commuter_rail",1978
141,"Horikawa",35.1779707610898,136.894540211951,"commuter_rail",1915
142,"Hommachi",35.1784031636415,136.901265669394,"commuter_rail",1911
143,"Otsumachi",35.1786221846016,136.905363482957,"commuter_rail",1926
144,"Doishita",35.1854684798046,136.908415827789,"commuter_rail",1911
145,"Higashiōte",35.1813548956103,136.908798685754,"commuter_rail",1911
146,"Misono",35.1780229300391,136.89695713485,"commuter_rail",1911
147,"Doishita",35.1873769179441,136.909979246285,"commuter_rail",1976
148,"Akaike",35.1210283663927,137.018203190136,"commuter_rail",1979
149,"Nisshin",35.1184541443949,137.048862739189,"commuter_rail",1979
150,"Komenoki",35.1239190321272,137.066974573173,"commuter_rail",1979
151,"Kurozasa",35.1276510953363,137.091452340922,"commuter_rail",1979
152,"Miyoshigaoka",35.1269727830341,137.111111749806,"commuter_rail",1979
153,"Jōsui",35.1213626247184,137.137310830797,"commuter_rail",1979
154,"Kami Toyota",35.1165791712645,137.154658569461,"commuter_rail",1979
155,"Umetsubo",35.099989919869,137.1624143651,"commuter_rail",1979
156,"Hekinan",34.8739258859517,136.985550730625,"commuter_rail",1954
157,"Ōhama-minato",34.873858313695,136.985546612434,"commuter_rail",1914
158,"Shin Suma",34.8857466434901,136.989433776539,"commuter_rail",1915
159,"Hekinan-Chūō",34.8876328479365,136.989503020592,"commuter_rail",1981
160,"Shinkawamachi",34.8969120713555,136.990425324432,"commuter_rail",1914
161,"Kitashinkawa",34.9064006301521,136.992383372241,"commuter_rail",1914
162,"Takahama Minato",34.921194412396,136.98924216858,"commuter_rail",1914
163,"Mikawa Takahama",34.9306208101134,136.990011564482,"commuter_rail",1918
164,"Yoshihama",34.947079409528,136.989764595053,"commuter_rail",1914
165,"Ogakie",34.9637837076106,136.995396559387,"commuter_rail",1914
166,"Kariyashi",34.9846801361146,136.993690807495,"commuter_rail",1914
167,"Kariya",34.9908171672855,137.0086523158,"commuter_rail",1914
168,"Shigehara",34.9944936589912,137.023476708175,"commuter_rail",1923
169,"Chiryū",35.0057566386735,137.039834352866,"commuter_rail",1959
170,"Chiryū",35.0039923674764,137.045210727882,"commuter_rail",1915
171,"Mikawa Chiryū",35.0040053336132,137.045289872931,"commuter_rail",1959
172,"Mikawa Yatsuhashi",35.0112101022146,137.077553423146,"commuter_rail",1920
173,"Wakabayashi",35.0265330934949,137.096318277443,"commuter_rail",1920
174,"Takemura",35.0400681510298,137.114791150098,"commuter_rail",1920
175,"Tsuchihashi",35.0582721521932,137.129738575815,"commuter_rail",1920
176,"Uwa Goromo",35.0717349880808,137.154299648886,"commuter_rail",1920
177,"Toyotashi",35.0871305315031,137.156254801589,"commuter_rail",1920
178,"Umetsubo",35.0999419965388,137.162417759924,"commuter_rail",1923
179,"Koshido",35.1076600871463,137.18007916331,"commuter_rail",1922
180,"Hiratobashi",35.1146960843214,137.184627902103,"commuter_rail",1924
181,"Sanage",35.122150116503,137.178702636449,"commuter_rail",1924
182,"Mikawa Mifune",35.1321667040972,137.187802139415,"commuter_rail",1927
183,"Shidare",35.1447736392092,137.208859037519,"commuter_rail",1927
184,"Mikawa Hirose",35.151353159135,137.218678157605,"commuter_rail",1927
185,"Nishinakagane",35.1398954577399,137.235849556692,"commuter_rail",1928
186,"Tamatsu-ura",34.8673772041349,136.985454596879,"commuter_rail",1926
187,"Tanao",34.8683522594463,136.993912317332,"commuter_rail",1926
188,"Mikawa Asahi",34.8731216883108,136.99732991084,"commuter_rail",1926
189,"Nakabata",34.866612229843,137.010984307092,"commuter_rail",1926
190,"Mikawa Heisaka",34.8638199802893,137.020943314016,"commuter_rail",1926
191,"Mikawa Kusu",34.8546767460688,137.019839093155,"commuter_rail",1926
192,"Kita Terazu",34.8420675544047,137.016900993955,"commuter_rail",1927
193,"Terazu",34.8384706171994,137.016912651265,"commuter_rail",1926
194,"Nishi Ishiki",34.8189856348519,137.023898838933,"commuter_rail",1926
195,"Mikawa Ishiki",34.8076976621285,137.030154115312,"commuter_rail",1926
196,"Matsukijima",34.7942407851108,137.041787090899,"commuter_rail",1926
197,"Mikawa Yoshida",34.7939928190133,137.068937532085,"commuter_rail",1928
198,"Kira Yoshida",34.7939200646803,137.070847681152,"commuter_rail",1943
199,"Kamiiida",35.2046466672157,136.929988260749,"commuter_rail",1931
200,"Seko",35.2118719205392,136.933270501144,"commuter_rail",1931
201,"Ajima",35.2226491946957,136.936164320397,"commuter_rail",1931
202,"Ajiyoshi",35.2352350265325,136.937159716192,"commuter_rail",1931
203,"Kasugai-guchi",35.2421781631793,136.93698722675,"commuter_rail",1931
204,"Kasugai",35.2502429843393,136.936225635527,"commuter_rail",1931
205,"Ushiyama",35.2637919161467,136.931373483617,"commuter_rail",1931
206,"Manai",35.2716459276634,136.931181719826,"commuter_rail",1931
207,"Komakiguchi",35.2818792634377,136.927599785377,"commuter_rail",1931
208,"Komaki",35.2889005660654,136.926830229414,"commuter_rail",1931
209,"Komaki",35.2892209881242,136.928117408138,"commuter_rail",1989
210,"Kamishimmachi",35.2923643259829,136.929178477928,"commuter_rail",1931
211,"Komakihara",35.3001275206683,136.935819889436,"commuter_rail",1931
212,"Ajioka",35.3092742708649,136.940300560804,"commuter_rail",1931
213,"Tagatajinja-mae",35.317458245743,136.943796336668,"commuter_rail",1931
214,"Gakuden",35.3308927030416,136.950215409818,"commuter_rail",1931
215,"Gakudenhara",35.3406291598992,136.952753623562,"commuter_rail",1931
216,"Haguro",35.3511207638195,136.952554904321,"commuter_rail",1931
217,"Gorōmaru",35.3628406695528,136.948441580574,"commuter_rail",1931
218,"Higashi Inuyama",35.375663455048,136.944400394569,"commuter_rail",1931
219,"Inuyama",35.3802615295094,136.945692904747,"commuter_rail",1931
220,"Kachigawaguchi",35.2270008799095,136.946660882649,"commuter_rail",1931
221,"Shinkachigawa",35.2338189834692,136.953032927827,"commuter_rail",1931
222,"Ajima",35.2225065507517,136.936148102499,"commuter_rail",1931
223,"Komaki",35.2891157256833,136.928460907649,"people_mover",1991
224,"Komakihara",35.2987967047885,136.93521978059,"people_mover",1991
225,"Higashitanaka",35.3002207864267,136.943233085665,"people_mover",1991
226,"Kamisue",35.2982988167518,136.960150238653,"people_mover",1991
227,"Tōkadai nishi",35.3034207959882,136.974666316656,"people_mover",1991
228,"Tōkadai Center",35.3011960037387,136.983487408056,"people_mover",1991
229,"Tōkadai Higashi",35.2955613558416,136.989835305621,"people_mover",1991
230,"Okazaki Shin",34.9252685928869,137.158131162386,"commuter_rail",1911
231,"Toro",34.9068333516842,137.150627888934,"commuter_rail",1911
232,"Toro",34.907210831231,137.149585153095,"commuter_rail",1929
233,"Okazakimae",34.925662440611,137.157607720979,"commuter_rail",1929
234,"Urabe",34.8967832172155,137.137382852948,"commuter_rail",1915
235,"Mikawa Nakajima",34.8840143119656,137.120542152905,"commuter_rail",1911
236,"Miejima",34.8792177647663,137.099657215562,"commuter_rail",1914
237,"Sanwagawa",34.8765101858192,137.08696538911,"commuter_rail",1917
238,"Yatsuomote",34.8726049325126,137.076157907414,"commuter_rail",1912
239,"Yatsuomote",34.8732299376719,137.077053037261,"commuter_rail",1929
240,"Kumaku",34.872755234469,137.068960079163,"commuter_rail",1911
241,"Tennō-mon",34.8693298653114,137.057757396692,"commuter_rail",1911
242,"Nishio",34.8640779712813,137.053339517542,"commuter_rail",1911
243,"Sumizaki",34.8617861081418,137.040411610002,"commuter_rail",1929
244,"Hatsuka",34.8610819390644,137.032280193971,"commuter_rail",1914
245,"Hatsuka",34.8608962472953,137.029678380262,"commuter_rail",1928
246,"Heisakaguchi",34.8604754880262,137.018654778812,"commuter_rail",1914
247,"Minato-mae",34.857010337416,137.014926298818,"commuter_rail",1914
248,"Imamura",34.9869548414998,137.085135478061,"commuter_rail",1926
249,"Shin-Anjō",34.9869833544453,137.085157153441,"commuter_rail",1970
250,"Kita-Anjō",34.96477313303,137.092047311023,"commuter_rail",1926
251,"Minami-Anjō",34.951991465174,137.092522209978,"commuter_rail",1926
252,"Anjō",34.9597407655472,137.087901744745,"commuter_rail",1951
253,"Hekikai Furui",34.9370250048075,137.090817931648,"commuter_rail",1926
254,"Hekikai Horiuchi",34.9274839416683,137.089626186,"commuter_rail",1926
255,"Horiuchikōen",34.9274556386431,137.089630132301,"commuter_rail",2008
256,"Hekikai Sakurai",34.9179314928152,137.088295003248,"commuter_rail",1926
257,"Sakurai",34.9178982268991,137.088287721454,"commuter_rail",2008
258,"Minami Sakurai",34.9058840841964,137.076744097829,"commuter_rail",2008
259,"Yonezu",34.8926618857052,137.060824826266,"commuter_rail",1926
260,"Chūgaku-mae",34.8802852364428,137.062445556619,"commuter_rail",1928
261,"Sakuramachi-mae",34.8802332070569,137.062455160353,"commuter_rail",1949
262,"Nishioguchi",34.8705602257633,137.062533995397,"commuter_rail",1928
263,"Nishio",34.8639380662056,137.057807645665,"commuter_rail",1928
264,"Isshikiguchi",34.84439632216,137.048567955945,"commuter_rail",1915
265,"Fukuchi",34.8443277997369,137.048563044639,"commuter_rail",1949
266,"Kamaya",34.839367005638,137.060808069177,"commuter_rail",1928
267,"Kami Yokosuka",34.8301933952446,137.072113062601,"commuter_rail",1915
268,"Higashi-Tomida",34.8141774846626,137.067216234992,"commuter_rail",1915
269,"Mikawa Ogihara",34.8064695843149,137.066935803689,"commuter_rail",1915
270,"Kira Yoshida",34.7958643876088,137.070359621341,"commuter_rail",1915
271,"Kira Yoshida",34.7942434388998,137.071166491579,"commuter_rail",1943
272,"Nishio",34.863961596708,137.057760708888,"commuter_rail",1928
273,"Minami-Anjō",34.9519422288534,137.09248996679,"commuter_rail",1951
274,"Miyazakiguchi",34.7914973297965,137.090096089837,"commuter_rail",1929
275,"Mikawa Toba",34.793243418624,137.105436323099,"commuter_rail",1929
276,"Nishi Hazu",34.7924337973142,137.12177389507,"commuter_rail",1936
277,"Higashi Hazu",34.7895648411988,137.145683953128,"commuter_rail",1936
278,"Kodomonokuni",34.7887049370909,137.163245637679,"commuter_rail",1936
279,"Nishiura",34.7902556488613,137.178999531602,"commuter_rail",1936
280,"Katahara",34.7987067984761,137.184618597569,"commuter_rail",1936
281,"Mikawa Kashima",34.8132825733221,137.189671889451,"commuter_rail",1936
282,"Hiroishi",34.8240840754513,137.198949521972,"commuter_rail",1936
283,"Gamagōri-Kyōteijō-Mae",34.8256159384754,137.202137830561,"commuter_rail",1968
284,"Takeya",34.8268961761307,137.205734002142,"commuter_rail",1937
285,"Shiotsu",34.8269452935498,137.207154381125,"commuter_rail",1953
286,"Ebata",34.8262602358036,137.210829510867,"commuter_rail",1937
287,"Gamagōri",34.8227597642316,137.225976904745,"commuter_rail",1936
288,"Jingū-mae",35.1255528932341,136.912495582085,"commuter_rail",1913
289,"Akiba-mae",35.120877417854,136.912584648585,"commuter_rail",1912
290,"Tenma-chō",35.1182469119361,136.912833740931,"commuter_rail",1912
291,"Toyodahommachi",35.1134291625275,136.910778869094,"commuter_rail",1957
292,"Dōtoku",35.1056395443771,136.90938741554,"commuter_rail",1912
293,"Ōe",35.0929604921746,136.912649464727,"commuter_rail",1924
294,"Ōe",35.08445705351,136.910086754958,"commuter_rail",1917
295,"Ōe",35.086241349314,136.910684373342,"commuter_rail",1919
296,"Daidōchō",35.080080140965,136.909331313151,"commuter_rail",1940
297,"Hoshizaki",35.0723946447593,136.909076604433,"commuter_rail",1912
298,"Shibata",35.0724099576993,136.909079662466,"commuter_rail",1917
299,"Nawamura",35.0607549576189,136.91181114846,"commuter_rail",1912
300,"Nawa",35.0607709242523,136.911803428139,"commuter_rail",1947
301,"Shūrakuen",35.0426919631554,136.903017529129,"commuter_rail",1917
302,"Shin Nittetsu-mae",35.0348361847549,136.89928396912,"commuter_rail",1912
303,"Ōtagawa",35.025425898928,136.895280458576,"commuter_rail",1912
304,"Ōtagawa",35.0205310559085,136.892745816146,"commuter_rail",1922
305,"Owari Yokosuka",35.0102684157947,136.885814882509,"commuter_rail",1912
306,"Teramoto",35.0000298409413,136.87509002536,"commuter_rail",1912
307,"Asakura",34.9935475997281,136.863113356992,"commuter_rail",1923
308,"Komi",34.9874718474902,136.856492637723,"commuter_rail",1912
309,"Nagaura",34.9783224870248,136.847702669398,"commuter_rail",1930
310,"Hinaga",34.9616618247768,136.832162155488,"commuter_rail",1912
311,"Shin Maiko",34.949473515624,136.828671673046,"commuter_rail",1912
312,"Ōnomachi",34.9352565053376,136.827416572405,"commuter_rail",1912
313,"Nishinokuchi",34.9244593032972,136.826862943369,"commuter_rail",2004
314,"Nishinokuchi",34.9274893576469,136.826616025077,"commuter_rail",1913
315,"Kabaike",34.9152320306236,136.825571214182,"commuter_rail",1913
316,"Enokido",34.9049680693642,136.828182783611,"commuter_rail",1944
317,"Taya",34.8962945914638,136.831131692874,"commuter_rail",1913
318,"Tokoname",34.8905722534038,136.835471008141,"commuter_rail",1913
319,"Rinkū Tokoname",34.8794868408779,136.827934113786,"commuter_rail",2005
320,"Central Japan International Airport",34.8598915131423,136.816280300596,"commuter_rail",2005
321,"Peony Garden Station",35.0146882207997,136.889460647753,"commuter_rail",1916
322,"Ōtagawa",35.0203611078426,136.892731143908,"commuter_rail",1931
323,"Takayokosuka",35.0094479679872,136.893740319825,"commuter_rail",1931
324,"Kagiya",34.9961923705476,136.905250565447,"commuter_rail",1931
325,"Minami Kagiya",34.9887115356588,136.906912561002,"commuter_rail",1931
326,"Yawata-shinden",34.9733272787714,136.912881132294,"commuter_rail",1931
327,"Tatsumigaoka",34.9624541954424,136.9155805161,"commuter_rail",1955
328,"Shirasawa",34.9546910927961,136.915277738698,"commuter_rail",1931
329,"Sakabe",34.940470226902,136.916747180238,"commuter_rail",1931
330,"Agui",34.9311477044148,136.91847075099,"commuter_rail",1983
331,"Mukuoka",34.9267889443759,136.920358585842,"commuter_rail",1931
332,"Uedai",34.917457014455,136.923336580917,"commuter_rail",1931
333,"Handaguchi",34.9088975599114,136.925443228927,"commuter_rail",1931
334,"Nō gakkō mae",34.9019033624809,136.925698506662,"commuter_rail",1933
335,"Sumiyoshichō",34.9018830072277,136.925698763231,"commuter_rail",1949
336,"Chita Handa",34.8941375495907,136.925866833842,"commuter_rail",1931
337,"Narawa",34.8858886145254,136.921634818863,"commuter_rail",1931
338,"Aoyama",34.87832885232,136.917043401868,"commuter_rail",1933
339,"Age",34.8581695822393,136.916463350623,"commuter_rail",1932
340,"Chita Taketoyo",34.850713708992,136.916560224847,"commuter_rail",1932
341,"Fuki",34.8291349713031,136.916859159393,"commuter_rail",1932
342,"Urashima",34.8367571944257,136.91629691416,"commuter_rail",1933
343,"Shikainami",34.8163604418003,136.917638648637,"commuter_rail",1932
344,"Futto",34.8039243181425,136.916915938744,"commuter_rail",1932
345,"Futto",34.8099659357113,136.916192255551,"commuter_rail",1972
346,"Kōwaguchi",34.7976081428109,136.918748844887,"commuter_rail",1932
347,"Tokishi",34.7934021848232,136.919364464118,"commuter_rail",1935
348,"Kōwa",34.7780622625971,136.912091416817,"commuter_rail",1935
349,"Fuki",34.8291218051303,136.91676631672,"commuter_rail",1974
350,"Kami Noma",34.8074220416464,136.866993811101,"commuter_rail",1974
351,"Mihama-ryokuen",34.8001633808481,136.8630817443,"commuter_rail",1987
352,"Chita Okuda",34.7872090256575,136.864509065544,"commuter_rail",1975
353,"Noma",34.7723058623524,136.860701636421,"commuter_rail",1976
354,"Onoura",34.7598560612345,136.858175810058,"commuter_rail",
355,"Utsumi",34.7446399306932,136.875659712163,"commuter_rail",1980
356,"Higashi Nagoyakō",35.0890995441567,136.899048806645,"commuter_rail",1924
357,"Ōe",35.0930090010482,136.912385605291,"commuter_rail",1924
358,"Jingū-mae",35.1255064424916,136.912495921552,"commuter_rail",1917
359,"Horita",35.120214980187,136.919865608317,"commuter_rail",1930
360,"Idota",35.1207465791474,136.925460316882,"commuter_rail",1917
361,"Idota",35.1183433365551,136.92716978514,"commuter_rail",1930
362,"South Idota",35.1172097681905,136.928336823355,"commuter_rail",1917
363,"Yobitsugi",35.1145413431448,136.930544882776,"commuter_rail",1917
364,"Sakura",35.1064521979967,136.934683593636,"commuter_rail",1917
365,"Kasadera",35.0991130443119,136.933370084597,"commuter_rail",1917
366,"Moto-Kasadera",35.099148988976,136.933372019337,"commuter_rail",1943
367,"Higashi Kasadera",35.0923831012106,136.934577771029,"commuter_rail",1927
368,"Moto-Hoshizaki",35.0873298342814,136.937481299489,"commuter_rail",1917
369,"Narumi",35.0784587642447,136.950821128898,"commuter_rail",1917
370,"Sakyōyama",35.0706275906887,136.96012068955,"commuter_rail",1924
371,"Arimatsuura",35.0674234401095,136.971500910435,"commuter_rail",1917
372,"Arimatsu",35.0675196635978,136.971355530053,"commuter_rail",1943
373,"Okehasama",35.0625902386372,136.976619962889,"commuter_rail",1931
374,"Chūkyō-keibajō-mae",35.061407292345,136.981322791571,"commuter_rail",1953
375,"Zengo",35.052197774527,136.995689927835,"commuter_rail",1923
376,"Ano",35.0408514367886,137.008470669034,"commuter_rail",1923
377,"Toyoake",35.040826055778,137.008487190847,"commuter_rail",1956
378,"Imagawa",35.0294742154053,137.016630731536,"commuter_rail",1923
379,"Fujimatsu",35.0294637019132,137.016635751971,"commuter_rail",1952
380,"Hitotsugi",35.0136869062063,137.02537308079,"commuter_rail",1923
381,"Shin-Chiryū",35.0033595693497,137.044557526981,"commuter_rail",1923
382,"Chiryū",35.0033619825853,137.044537584227,"commuter_rail",1941
383,"Higashi Chiryū",35.0033665028907,137.044526262632,"commuter_rail",1959
384,"Ushida",34.9990221515232,137.061417334024,"commuter_rail",1923
385,"Imamura",34.9870853191157,137.085286833782,"commuter_rail",1923
386,"Shin-Anjō",34.9870954917806,137.08526485777,"commuter_rail",1970
387,"Utō",34.9715000617011,137.117921637954,"commuter_rail",1923
388,"Yahagibashi",34.9612358140145,137.139601503393,"commuter_rail",1923
389,"Nishi-Okazaki",34.9560909254245,137.150791612207,"commuter_rail",1923
390,"Nishi-Okazaki",34.9542138792525,137.154995457271,"commuter_rail",1925
391,"Okazakikōen-mae",34.9541964540266,137.154983386395,"commuter_rail",1936
392,"Okazakikōen-mae",34.9549143298502,137.153381806404,"commuter_rail",1976
393,"Higashi-Okazaki",34.9520237289193,137.167063067743,"commuter_rail",1923
394,"Chiryū",35.0058425402204,137.039943652108,"commuter_rail",1959
395,"Horita",35.1206481406292,136.920026831232,"commuter_rail",1928
396,"Otogawa",34.9374247845613,137.18335955526,"commuter_rail",1926
397,"Miai",34.923709067975,137.196408776052,"commuter_rail",1926
398,"Fujikawa",34.9133220867911,137.218473774433,"commuter_rail",1926
399,"Aiden Yamanaka",34.8995681251257,137.24271448698,"commuter_rail",1926
400,"Meiden Yamanaka",34.8995742119694,137.242703831614,"commuter_rail",1938
401,"Motojuku",34.8931539495285,137.259798608572,"commuter_rail",1926
402,"Aiden-Nagasawa",34.8716337338101,137.288180816447,"commuter_rail",1926
403,"Meiden-Nagasawa",34.871642834505,137.28815486391,"commuter_rail",1938
404,"Aiden-Akasaka",34.859171038547,137.3113428705,"commuter_rail",1926
405,"Meiden-Akasaka",34.8591590724502,137.311355396521,"commuter_rail",1938
406,"Hon Goyu",34.8456876550097,137.321797291979,"commuter_rail",1926
407,"Goyu",34.845701752167,137.3217858418,"commuter_rail",1949
408,"Kō",34.837605748919,137.328024848096,"commuter_rail",1926
409,"Odabuchi",34.8145583732013,137.345731895425,"commuter_rail",1934
410,"Ina",34.8026132406615,137.354901324714,"commuter_rail",1927
411,"Kozakai",34.7977246107443,137.363006311025,"commuter_rail",1926
412,"Yoshida",34.7638185275773,137.381948487105,"commuter_rail",1927
413,"Toyohashi",34.7638548589709,137.381920121535,"commuter_rail",1943
414,"Shiratori",34.8303231368007,137.340758950693,"commuter_rail",1945
415,"Dai Ni Shihan-mae",34.8294818247999,137.348415139967,"commuter_rail",1948
416,"Yawataguchi",34.8294765079568,137.348465914514,"commuter_rail",1949
417,"Yawata",34.8291149540364,137.352217850929,"commuter_rail",1972
418,"Noguchi",34.8285183140178,137.357650299675,"commuter_rail",1945
419,"Ichida",34.8285144450082,137.357692181512,"commuter_rail",1946
420,"Kōtō Shihan-mae",34.8260613790499,137.364599372429,"commuter_rail",1948
421,"Shimmichi",34.8260496618365,137.364623442822,"commuter_rail",1954
422,"Suwa-Shimmichi",34.8260383618712,137.364653210873,"commuter_rail",1955
423,"Shiyakushomae",34.8237593131799,137.369770488853,"commuter_rail",1945
424,"Suwachō",34.8237141747114,137.369874646438,"commuter_rail",1955
425,"Inariguchi",34.8184524235656,137.387616814661,"commuter_rail",1954
426,"Shin-Toyokawa",34.8222487985219,137.396382572875,"commuter_rail",1954
427,"Toyokawa-inari",34.822182786323,137.396322838712,"commuter_rail",1955
428,"Kō",34.8376926248495,137.328182265869,"commuter_rail",1945
429,"Oshikiri-chō",35.1857777185113,136.885784077405,"commuter_rail|inter_city_rail",1910
430,"Hirano-chō",35.1870364605558,136.88054154258,"commuter_rail|inter_city_rail",1910
431,"Higashi-Biwajima",35.1905600040636,136.873763704801,"commuter_rail|inter_city_rail",1910
432,"Biwajimabashi",35.1945538888555,136.868546941126,"commuter_rail|inter_city_rail",1912
433,"Shimo-Otai",35.2020828369544,136.870644125889,"commuter_rail|inter_city_rail",1912
434,"Naka-Otai",35.2147926512921,136.87684769228,"commuter_rail|inter_city_rail",1912
435,"Hiratabashi",35.2265171206639,136.875196220308,"commuter_rail|inter_city_rail",1912
436,"Kami-Otai",35.2234350838178,136.876958539101,"commuter_rail",1991
437,"Kunotsubo",35.2373089813074,136.870461051518,"commuter_rail|inter_city_rail",1913
438,"Nishiharu",35.2446692326143,136.871261908949,"commuter_rail|inter_city_rail",1912
439,"Tokushige-Nagoya-Geidai",35.2560119889449,136.873390092051,"commuter_rail|inter_city_rail",1912
440,"Taisanji",35.2633031236923,136.874754042732,"commuter_rail|inter_city_rail",1915
441,"Inari-mae",35.2711869389661,136.874281482403,"commuter_rail|inter_city_rail",1912
442,"Iwakura",35.2782318124454,136.873358723347,"commuter_rail|inter_city_rail",1912
443,"Iwakura",35.2782463710221,136.873432791434,"commuter_rail|inter_city_rail",1912
444,"Iwakura",35.2781901143578,136.873543671829,"commuter_rail|inter_city_rail",1920
445,"Moto Oyama",35.2882045141048,136.853041694159,"commuter_rail|inter_city_rail",1912
446,"Hane",35.2915200243926,136.841782499988,"commuter_rail|inter_city_rail",1912
447,"Asano",35.2942660225808,136.829557435556,"commuter_rail|inter_city_rail",1912
448,"Inden",35.2983822196374,136.814111323718,"commuter_rail|inter_city_rail",1912
449,"Inden",35.2983840816347,136.814096192539,"commuter_rail",1954
450,"Hanaoka-chō",35.3003652174282,136.80930868688,"commuter_rail",1930
451,"Higashi Ichinomiya",35.3013497700643,136.80313352658,"commuter_rail|inter_city_rail",1913
452,"Nishi-Inden",35.3010563307545,136.806156877886,"inter_city_rail",1912
453,"Ishibotoke",35.2960765332388,136.871197263479,"commuter_rail|inter_city_rail",1912
454,"Kooriguchi",35.3083907970828,136.872178359683,"commuter_rail|inter_city_rail",1912
455,"Hotei",35.317668549095,136.872988664241,"commuter_rail|inter_city_rail",1912
456,"Kochino",35.3346981216669,136.872045084076,"commuter_rail|inter_city_rail",1912
457,"Kōnan",35.3347081437537,136.87204891011,"commuter_rail",1981
458,"Miyaushiro",35.341268175972,136.88410381051,"commuter_rail|inter_city_rail",1912
459,"Kashiwamori",35.3448720881134,136.900465133702,"commuter_rail|inter_city_rail",1912
460,"Shimono",35.359693290273,136.916064038957,"commuter_rail|inter_city_rail",1912
461,"Fusō",35.3597329788498,136.916093403073,"commuter_rail",1948
462,"Kotsuyōsui",35.367020401806,136.926171447391,"commuter_rail|inter_city_rail",1912
463,"Inuyamaguchi",35.3742765219512,136.939992927226,"commuter_rail|inter_city_rail",1912
464,"Inuyama",35.3803121070028,136.945554605636,"commuter_rail|inter_city_rail",1912
465,"Inuyamabashi",35.3906475193968,136.946920086213,"commuter_rail",1926
466,"Inuyama-Yūen",35.3906733959453,136.946919837963,"commuter_rail",1949
467,"Shin-Unuma",35.3973039838611,136.944870363061,"commuter_rail",1926
468,"Shin-Unuma",35.3967473620694,136.944328016169,"commuter_rail",1964
469,"Inuyama-Yūen",35.3902941070482,136.946980126801,"people_mover",1962
470,"Narita-San",35.3874631456468,136.94968478633,"people_mover",1962
471,"Dōbutsuen",35.3903375165756,136.956537671567,"people_mover",1962
472,"Naka-Ichiba",35.2804701150281,136.875826490162,"commuter_rail|inter_city_rail",1920
473,"Koki",35.2800912371001,136.897283606112,"commuter_rail|inter_city_rail",1920
474,"Obari",35.2784150957145,136.910032281481,"commuter_rail|inter_city_rail",1920
475,"Nishi-Komaki",35.2830490292917,136.921575977076,"commuter_rail",1946
476,"Komaki",35.2873854143495,136.921005405653,"commuter_rail|inter_city_rail",1920
477,"Komaki",35.2889051888288,136.9267779573,"commuter_rail",1945
478,"Nishi-Biwajima",35.1951220264152,136.865308588628,"commuter_rail|inter_city_rail",1914
479,"Nishi-Biwajima",35.1951142169774,136.865235775193,"commuter_rail",1949
480,"Futatsuiri",35.1947447860214,136.859571641025,"commuter_rail",1942
481,"Shinkawabashi",35.19556425113,136.852177062929,"commuter_rail|inter_city_rail",1914
482,"Sukaguchi",35.1987180922251,136.846103537141,"commuter_rail|inter_city_rail",1914
483,"Jimokuji",35.195993836369,136.825534408461,"commuter_rail|inter_city_rail",1914
484,"Niiya",35.1960031403125,136.812851509808,"commuter_rail|inter_city_rail",1914
485,"Shippō",35.1958463382453,136.806630401232,"commuter_rail|inter_city_rail",1914
486,"Kida",35.1953120920716,136.787686574593,"commuter_rail|inter_city_rail",1914
487,"Aotsuka",35.1987211729252,136.767262453075,"commuter_rail|inter_city_rail",1914
488,"Shobata",35.195209802295,136.750190328828,"commuter_rail|inter_city_rail",1914
489,"Fujinami",35.1888984446237,136.738989623235,"commuter_rail|inter_city_rail",1914
490,"Tsushimaguchi",35.1825943519274,136.731527799203,"commuter_rail|inter_city_rail",1915
491,"Shin-Tsushima",35.1769653483046,136.73067395248,"commuter_rail|inter_city_rail",1914
492,"Tsushima",35.1780801640664,136.730689582592,"commuter_rail",1931
493,"Tsushima",35.178127487713,136.731085574999,"commuter_rail",1968
494,"Sukaguchi",35.1988489374042,136.846002379378,"commuter_rail|inter_city_rail",1914
495,"Marunouchi",35.2048850730316,136.84188596761,"commuter_rail|inter_city_rail",1914
496,"Shikenjōmae",35.2094870190824,136.841020465041,"commuter_rail|inter_city_rail",1914
497,"Kiyosu",35.2140977550511,136.842098167801,"commuter_rail|inter_city_rail",1914
498,"Kiyosu-chō",35.2141330793114,136.842102060184,"commuter_rail",1934
499,"Yatomi",35.1140889689921,136.725620446238,"commuter_rail",1898
500,"Yatomi-guchi",35.1186986055532,136.715204704836,"commuter_rail",1933
501,"Yatomi-guchi",35.1210549807676,136.713783256511,"commuter_rail",1983
502,"Gonosan",35.1297207535907,136.711450089823,"commuter_rail",1924
503,"Saya",35.1474627951516,136.716573800956,"commuter_rail",1898
504,"Hibino",35.1638283570415,136.728684126556,"commuter_rail",1907
505,"Minami-Tsushima",35.1715988216055,136.730628273303,"commuter_rail",1924
506,"Tsushima",35.1780637848934,136.730356441635,"commuter_rail",1898
507,"Kanehira",35.1868584816051,136.728604742627,"commuter_rail",1924
508,"Machikata",35.1897356067687,136.727187944789,"commuter_rail",1959
509,"Rokuwa",35.202244625234,136.729126367188,"commuter_rail",1899
510,"Fuchidaka",35.2140593899397,136.727304885914,"commuter_rail",1924
511,"Marubuchi",35.2224930212315,136.728975177886,"commuter_rail",1912
512,"Kami-Marubuchi",35.2341236173285,136.73264462095,"commuter_rail",1924
513,"Morikami",35.2474303435397,136.736889992322,"commuter_rail",1899
514,"Yamazaki",35.2561542692171,136.739340316213,"commuter_rail",1930
515,"Tamano",35.2659759806633,136.747542544984,"commuter_rail",1924
516,"Hagiwara",35.2769510204147,136.757505007117,"commuter_rail",1899
517,"Futago",35.2839021774627,136.766052170489,"commuter_rail",1924
518,"Kariyasuka",35.2871419747693,136.778119068216,"commuter_rail",1900
519,"Kannonji",35.2898154794742,136.786365891054,"commuter_rail",1928
520,"Shin-Ichinomiya",35.299848194029,136.798085247616,"commuter_rail",1900
521,"Shin-Ichinomiya",35.30188498,136.796899613729,"commuter_rail",1930
522,"Meitetsu Ichinomiya",35.3019544687931,136.796867316579,"commuter_rail",2005
523,"Nishi-Ichinomiya",35.3074966720844,136.792123602257,"commuter_rail",1914
524,"Nishi-Miyaushiro",35.3133537728793,136.784205548208,"commuter_rail",1924
525,"Kaimei",35.3193857062134,136.773792485081,"commuter_rail",1914
526,"Okuchō",35.3244534575337,136.760809998893,"commuter_rail",1914
527,"Tamanoi",35.3361656465909,136.759225199657,"commuter_rail",1914
528,"Tamanoi",35.3350569895105,136.758072380495,"commuter_rail",1951
529,"Satokomaki",35.350289172552,136.765297035642,"commuter_rail",1922
530,"Kisogawabashi",35.3590227376552,136.767838800726,"commuter_rail",1914
531,"Tsushima",35.1780807617837,136.730662772028,"commuter_rail",1931
532,"Shin-Ichinomiya",35.3018650825158,136.796858602666,"tram",1930
533,"Hachimanchō",35.3043274922298,136.790742228665,"tram",1924
534,"Ichinomiya Byōinmae",35.3050191314507,136.785923973461,"tram",1924
535,"Mabiki",35.3059784173334,136.778328773854,"tram",1924
536,"Kagoya",35.3068962724012,136.771042045933,"tram",1924
537,"Owari Sanjō",35.3073186878791,136.764780172463,"tram",1924
538,"Nishi Sanjō",35.3075249481842,136.760398462572,"tram",1924
539,"Shin-Sanjō",35.3077490065056,136.755385605159,"tram",1924
540,"Owari Nakajima",35.3076446237493,136.749319930035,"tram",1924
541,"Nishi Nakajima",35.3075059807704,136.744500507602,"tram",1930
542,"Okoshi",35.3075160645493,136.738213080706,"tram",1924
543,"Inuyamaguchi",35.3742562450671,136.940000456071,"commuter_rail",1925
544,"Higashi Inuyama",35.3756168912003,136.944321494278,,1925
545,"Tomioka-mae",35.3794661244773,136.96188334147,"commuter_rail",1925
546,"Inuyama",35.3802347448486,136.945838258755,"commuter_rail",1946
547,"Zenjino",35.3897144741769,136.979873735642,"commuter_rail",1925
548,"Aigi",35.3897337744718,136.993904050702,"commuter_rail",1925
549,"Katabira",35.4027174517394,137.008557851793,"commuter_rail",1925
550,"Harusato",35.4090847043755,137.017748745979,"commuter_rail",1925
551,"Nishi Kani",35.4048484602256,137.01085478588,"commuter_rail",1969
552,"Rain Yūen",35.4182638850671,137.018464555363,"commuter_rail",1925
553,"Dota",35.4182950855322,137.018476222015,"commuter_rail",1943
554,"Rain Yūen",35.4182785319818,137.018431079719,"commuter_rail",1949
555,"Kanigawa",35.4183229325136,137.018432867471,"commuter_rail",1969
556,"Imawatari",35.4323183571792,137.036954937651,"commuter_rail",1925
557,"Nihonrain-Imawatari",35.4323196861768,137.037045847401,"commuter_rail",1969
558,"Hiromi",35.4231540861811,137.055560915256,"commuter_rail|heavy_rail",1928
559,"Shin Hiromi",35.4230727456188,137.055604304963,"commuter_rail|heavy_rail",1930
560,"Shin-Tajimi",35.3354687137757,137.119699681106,"commuter_rail|light_rail",1918
561,"Tajimi",35.335033513666,137.120202430646,"commuter_rail",1928
562,"Koizumi",35.3491091741172,137.100404811335,"commuter_rail|light_rail",1918
563,"Nemoto",35.3613023868406,137.090169357413,"commuter_rail|light_rail",1920
564,"Hime",35.382071664424,137.072096062862,"commuter_rail|light_rail",1918
565,"Shimogiri",35.3935780251331,137.063794838974,"commuter_rail",1952
566,"Hiromi",35.4180233199067,137.061758716642,"commuter_rail|heavy_rail|light_rail",1918
567,"Shin Kani",35.4231047399588,137.055602953949,"commuter_rail",1982
568,"Hiromi",35.4226288741273,137.05537567275,"commuter_rail",1928
569,"Kani",35.4226571385805,137.055378364547,"commuter_rail",1982
570,"Mino Kawai",35.4441686627343,137.0453493395,"commuter_rail",1952
571,"Mino-Ōta",35.4455792796305,137.018804739475,"commuter_rail",1928
572,"Maenami",35.4272387701453,137.064676422691,"commuter_rail|heavy_rail",1928
573,"Gakkōmae",35.4268488247401,137.075063571313,"commuter_rail|heavy_rail",1928
574,"Fushimiguchi",35.433168782928,137.087434721929,"commuter_rail|heavy_rail|light_rail",1920
575,"Akechi",35.433172270751,137.087475955552,"commuter_rail",1982
576,"Gōdo",35.4344670263667,137.105247439559,"commuter_rail|heavy_rail",1928
577,"Mitake",35.4314698610662,137.12167770936,"commuter_rail|heavy_rail|light_rail",1920
578,"Mitakeguchi",35.4314414014466,137.121697229905,"commuter_rail",1952
579,"Mitake",35.4297459903374,137.127980959369,"commuter_rail",1952
580,"Fushimiguchi",35.4332263510033,137.087482500633,"commuter_rail|heavy_rail",1930
581,"Akechi",35.4332329077993,137.087525645957,"commuter_rail",1982
582,"Higashi Fushimi",35.4390386513461,137.089118890014,"commuter_rail|heavy_rail",1930
583,"Kaneyamaguchi",35.4521035607011,137.086434501925,"commuter_rail|heavy_rail",1930
584,"Kido",35.4557094795195,137.092513898088,"commuter_rail|heavy_rail",1930
585,"Kaneyama",35.4596841078762,137.097199398713,"commuter_rail|heavy_rail",1930
586,"Nakano",35.4673342747583,137.114692956016,"commuter_rail|heavy_rail",1930
587,"Igitsushi",35.4685876517592,137.123266654495,"commuter_rail|heavy_rail",1930
588,"Yaotsu",35.471962031699,137.13461931934,"commuter_rail|heavy_rail",1930
589,"Nagazumi-chō",35.4116623296422,136.760594320807,"commuter_rail",1928
590,"Shin Gifu",35.4116300593994,136.760589468903,"commuter_rail",1948
591,"Arata",35.4117186352973,136.763847281031,"commuter_rail",1926
592,"Arata",35.4117204333737,136.763853354264,"commuter_rail",1931
593,"Tagami",35.4113085141046,136.771824275042,"commuter_rail",1926
594,"Hosobata",35.4016001514175,136.785300762282,"commuter_rail",1926
595,"Kiridōshi",35.4001664680967,136.795994335818,"commuter_rail",1926
596,"Tejikara",35.3982912621032,136.804601919006,"commuter_rail",1926
597,"Takada-bashi",35.3984222317455,136.811845345161,"commuter_rail",1926
598,"Shin Kanō",35.3994251059556,136.82466389001,"commuter_rail",1926
599,"Shin Naka",35.4001189208141,136.833662806729,"commuter_rail",1926
600,"Kōnō",35.4005058287079,136.839980178203,"commuter_rail",1926
601,"Nōdai-mae",35.4005798388799,136.841377003005,"commuter_rail",1946
602,"Gifu Daigaku-mae",35.4005574740746,136.841379644691,"commuter_rail",1954
603,"Shiminkōen-mae",35.4005688902547,136.841393037549,"commuter_rail",1989
604,"Ichirentai-mae",35.4008566701146,136.847282268161,"commuter_rail",1926
605,"Kagamihara Undōjō-mae",35.4008570675021,136.847298398577,"commuter_rail",1939
606,"Undōjō-mae",35.4008578995245,136.84731341677,"commuter_rail",1950
607,"Kagamihara Hikōjō",35.4008582447563,136.84732568664,"commuter_rail",1961
608,"Kakamigahara Hikōjō",35.4008596306161,136.847338416715,"commuter_rail",1966
609,"Kakamigahara-shiyakusho-mae",35.4008603285259,136.847353507919,"commuter_rail",2005
610,"Rokuken",35.4010444182269,136.86168187305,"commuter_rail",1926
611,"Hikōdanmae",35.4010453239495,136.861749555514,"commuter_rail",1938
612,"Rokken",35.4010458880928,136.861821954497,"commuter_rail",1939
613,"Kagamino",35.4006818761966,136.868368680078,"commuter_rail",1926
614,"Kagami-Hokyūbu-mae",35.4001274289514,136.875616697536,"commuter_rail",1931
615,"Kōkū-shō",35.400134309073,136.875704295829,"commuter_rail",1935
616,"Mikakino",35.4001425250162,136.875796847902,"commuter_rail",1939
617,"Nijikken",35.4001689612629,136.889095980438,"commuter_rail",1935
618,"Nirentai-mae",35.4025887101519,136.900890172847,"commuter_rail",1926
619,"Meiden Kagamihara",35.402603145589,136.900941917561,"commuter_rail",1939
620,"Meiden Kakamigahara",35.4026155529417,136.900985498308,"commuter_rail",1966
621,"Keibajō-mae",35.4036515428992,136.906835633391,"commuter_rail",1932
622,"Ogase",35.4033785805304,136.912115808424,"commuter_rail",1927
623,"Haba",35.4011830028658,136.921717190719,"commuter_rail",1927
624,"Unumajuku",35.4000875834607,136.932258622472,"commuter_rail",1927
625,"Higashi Unuma",35.3978829704526,136.943800780938,"commuter_rail",1927
626,"Shin-Unuma",35.3966661394931,136.944355672106,"commuter_rail",1964
627,"Shin-Unuma",35.3977322230038,136.944546344749,"commuter_rail",1931
628,"Shin-Ichinomiya",35.2998634965969,136.798131883214,"commuter_rail",1924
629,"Shin-Ichinomiya",35.3019818499047,136.797066340989,"commuter_rail",1930
630,"Meitetsu Ichinomiya",35.3020499227613,136.797035152496,"commuter_rail",2005
631,"Myōkōji",35.2873898146692,136.798285566521,"commuter_rail",1924
632,"Ujinaga",35.2762983904735,136.799969471931,"commuter_rail",1924
633,"Shima",35.2685426367366,136.80144423806,"commuter_rail",1924
634,"Yamato",35.2712757554615,136.800856686906,"commuter_rail",1928
635,"Shima-Ujinaga",35.2712585398708,136.800859765136,"commuter_rail",1930
636,"Kōnomiya",35.2541268405471,136.802966668862,"commuter_rail",1924
637,"Okuda",35.2356527325885,136.810843251657,"commuter_rail",1928
638,"Ōzato",35.2263755633893,136.818411532716,"commuter_rail",1928
639,"Ōsato",35.2263636446453,136.81842675177,"commuter_rail",1943
640,"Mashitaguchi",35.2181974520753,136.827668812528,"commuter_rail",1928
641,"Nishi Kiyosu",35.2112740431737,136.835517217293,"commuter_rail",1928
642,"Shin-Kiyosu",35.2112645189325,136.835528202028,"commuter_rail",1948
643,"Marunouchi",35.204879036379,136.841871170815,"commuter_rail",1928
644,"Imaise",35.3185179449281,136.78920140126,"commuter_rail",1935
645,"Umayose",35.3262906220723,136.785438304303,"commuter_rail",1935
646,"Iwato",35.3263032303484,136.785432310194,"commuter_rail",1941
647,"Shin-Kisogawa",35.3418562941581,136.779458455938,"commuter_rail",1935
648,"Kuroda",35.3503473012115,136.777425912204,"commuter_rail",1936
649,"Kisogawa-zutsumi",35.3651801689532,136.77035650985,"commuter_rail",1939
650,"Higashi Kasamatsu",35.369367756907,136.765044709078,"commuter_rail",1935
651,"Shin Gifu",35.4105579692436,136.75881004426,"commuter_rail",1915
652,"Meitetsu Gifu",35.4108964292101,136.760159699232,"commuter_rail",1948
653,"Kanō",35.407297998016,136.760422714907,"commuter_rail",1915
654,"Hiroe",35.4061888786111,136.762453529604,"commuter_rail",1914
655,"Kanō",35.4051386579147,136.766234158532,"commuter_rail",1958
656,"Aratamachi",35.4042714478464,136.768284865227,"commuter_rail",1914
657,"Kamikawate",35.4024469591133,136.768890906764,"commuter_rail",1914
658,"Chajo",35.4024208664932,136.768890765634,"commuter_rail",1915
659,"Shimokawate",35.3959745830794,136.768751672,"commuter_rail",1914
660,"Sakaigawa",35.3914168232879,136.769251255147,"commuter_rail",1914
661,"Ginan",35.3895891564964,136.769194524812,"commuter_rail",1980
662,"Yatsurugi",35.3813933616364,136.76814818788,"commuter_rail",1914
663,"Kasamatsu-guchi",35.3704684596748,136.762648735129,"commuter_rail",1914
664,"Kasamatsu",35.3705080782856,136.763550124431,"commuter_rail",1916
665,"Kasamatsu",35.369113598474,136.757949131804,"commuter_rail",1921
666,"Kasamatsu-guchi",35.3733496664356,136.762158570926,"commuter_rail",1921
667,"Shin Kasamatsu",35.3747670009296,136.764676021381,"commuter_rail",1935
668,"Kasamatsu",35.3746529082378,136.764630840626,"commuter_rail",1936
669,"Nishi Kasamatsu",35.3689446542947,136.757842702703,"commuter_rail",1936
670,"Shin Kasamatsu",35.3746847025964,136.764475623939,"commuter_rail",1935
671,"Kasamatsu",35.3745924119629,136.764427061801,"commuter_rail",1936
672,"Higashi-Biwajima",35.1898200613576,136.870207241157,"commuter_rail",1941
673,"Sakō",35.1837865929295,136.87292279468,"commuter_rail",1941
674,"Shin Nagoya",35.1696348441354,136.883879231609,"commuter_rail",1941
675,"Meitetsu-Nagoya",35.1695989839588,136.883871833121,"commuter_rail",2005
676,"Sannō",35.1517048340962,136.888626073901,"commuter_rail",1944
677,"Chūnichi-kyūjō-mae",35.1516827237488,136.888660498164,"commuter_rail",1956
678,"Nagoya-kyūjō-mae",35.1516724121906,136.888614288787,"commuter_rail",1976
679,"Sannō",35.1516548073808,136.888641344433,"commuter_rail",2005
680,"Kanayama",35.1417324371132,136.903219333358,"commuter_rail",1944
681,"Kanayama-bashi",35.1417669402895,136.903172018853,"commuter_rail",1945
682,"Kanayama",35.1429334718113,136.901144446324,"commuter_rail",1989
683,"Higashi Suga",35.3654924688437,136.753803431607,"commuter_rail",1921
684,"Higashi Yanaizu",35.3650508741253,136.741817615799,"commuter_rail",1921
685,"Nishi Yanaizu",35.3649213341992,136.737111322128,"commuter_rail",1921
686,"Yanaizu",35.3649089706766,136.737097054166,"commuter_rail",1953
687,"Yanaizu",35.3651772570456,136.739532841255,"commuter_rail",2008
688,"Kadoma",35.357456858742,136.73180465904,"commuter_rail",1921
689,"Minami-Juku",35.3476788770188,136.72856445529,"commuter_rail",1921
690,"Suka",35.3396532697199,136.726466811072,"commuter_rail",1921
691,"Fuwa-Ishiki",35.3329103543596,136.721826470954,"commuter_rail",1921
692,"Magari",35.3297398719773,136.719226624102,"commuter_rail",1921
693,"Takehana",35.3268377657783,136.706866307086,"commuter_rail",1921
694,"Sakaemachi",35.3268412795396,136.706899443157,"commuter_rail",1929
695,"Hongakuji-mae",35.3261583864938,136.702868539804,"commuter_rail",1929
696,"Takehana",35.3223337126151,136.700012856383,"commuter_rail",1929
697,"Nishi Takehana",35.3223068291831,136.700016069607,"commuter_rail",1951
698,"Hashima",35.3222770438382,136.700014746973,"commuter_rail",1959
699,"Hashimashiyakushomae",35.322247554005,136.700011188021,"commuter_rail",1983
700,"Egira",35.3160147718231,136.699732162216,"commuter_rail",1929
701,"Egira",35.3155367935367,136.699703099527,"commuter_rail",1983
702,"Shin-Hashima",35.315432764302,136.686676669874,"commuter_rail",1983
703,"Makino",35.309860675944,136.699951277586,"commuter_rail",1929
704,"Nagama",35.304986492816,136.70296847835,"commuter_rail",1929
705,"Nakaku",35.2995249267694,136.701685402776,"commuter_rail",1929
706,"Oki",35.2953292989575,136.700725441734,"commuter_rail",1929
707,"Ichinoeda",35.2880129708684,136.699657926789,"commuter_rail",1929
708,"Mino Ishida",35.2834419464893,136.699096234054,"commuter_rail",1929
709,"Shōsenji-mae",35.2745403603931,136.695609940343,"commuter_rail",1929
710,"Yagami",35.2706545684218,136.693082287694,"commuter_rail",1929
711,"Kuwabara",35.270393966666,136.687692455857,"commuter_rail",1929
712,"Ōsu",35.2704122577664,136.677223820449,"commuter_rail",1929
713,"Nagoya",35.1688291769282,136.88236536683,"commuter_rail",2004
714,"Sasashima-raibu",35.1618217263994,136.881825670263,"commuter_rail",2004
715,"Komoto",35.1492338436081,136.861359806875,"commuter_rail",2004
716,"Arako",35.1400597845243,136.861692953147,"commuter_rail",2004
717,"Minami-arako",35.1316160054152,136.861775201862,"commuter_rail",2004
718,"Nakajima",35.1251970820538,136.861431711084,"commuter_rail",2004
719,"Nagoya-keibajō-mae",35.1145895559193,136.862722222423,"commuter_rail",2004
720,"Arakogawa-kōen",35.1046308558289,136.86121085986,"commuter_rail",2004
721,"Inaei",35.0913757439195,136.863318315919,"commuter_rail",2004
722,"Noseki",35.0752096989626,136.854122557811,"commuter_rail",2004
723,"Kinjō-futō",35.0489575271694,136.849199066409,"commuter_rail",2004
724,"Kachigawa",35.2275512925094,136.952000141341,"commuter_rail",1991
725,"Ajiyoshi",35.2294471823124,136.932422521482,"commuter_rail",1991
726,"Hira",35.2286692673795,136.902802021457,"commuter_rail",1991
727,"Otai",35.2211077296802,136.880606424094,"commuter_rail",1991
728,"Owari-Hoshinomiya",35.2129872764908,136.855001299831,"commuter_rail",1993
729,"Biwajima",35.1993488767262,136.861373475063,"commuter_rail",1993
730,"Okazaki",34.9255581847576,137.157421261659,"commuter_rail",1970
731,"Mutsuna",34.9412152762033,137.152016157537,"commuter_rail",1988
732,"Naka-Okazaki",34.9558838526855,137.152638287722,"commuter_rail",1970
733,"Kita-Okazaki",34.9724927856183,137.157794747863,"commuter_rail",1971
734,"Daimon",34.982433935267,137.154834229612,"commuter_rail",1988
735,"Kitano-Masuzuka",34.9966017900396,137.139192360961,"commuter_rail",1970
736,"Mikawa-Kamigō",35.0127438245183,137.132799081002,"commuter_rail",1976
737,"Ekaku",35.0274144798523,137.138959126833,"commuter_rail",1976
738,"Suenohara",35.0396532631483,137.147016568903,"commuter_rail",1988
739,"Mikawa-Toyota",35.0558094222296,137.150901553824,"commuter_rail",1976
740,"Shin-Uwagoromo",35.0714136721174,137.151262708654,"commuter_rail",1988
741,"Shin-Toyota",35.0876988011283,137.153556825745,"commuter_rail",1976
742,"Aikan-Umetsubo",35.1052157903003,137.160880936899,"commuter_rail",2005
743,"Shigō",35.1222817892755,137.162562712821,"commuter_rail",1988
744,"Kaizu",35.1330728203418,137.148235283047,"commuter_rail",2005
745,"Homi",35.1366541554203,137.134429157304,"commuter_rail",1988
746,"Sasabara",35.1547774781039,137.120714234085,"commuter_rail",1988
747,"Yakusa",35.176240037948,137.106699474099,"commuter_rail",1988
748,"Yamaguchi",35.1977678586883,137.101918017245,,1988
749,"Setoguchi",35.2064285136347,137.082173749493,"commuter_rail",1988
750,"Setoshi",35.2260115694063,137.078491922639,"commuter_rail",1988
751,"Nakamizuno",35.2502372740409,137.072048583057,"commuter_rail",1988
752,"Kōzōji",35.2642964868161,137.043395647886,"commuter_rail",1988
753,"Maibara",35.3149657481999,136.289416329234,"high_speed_rail",1964
754,"Gifu-Hashima",35.3157801246139,136.685667670754,"high_speed_rail",1964
755,"Nagoya",35.1703261193636,136.881112114761,"high_speed_rail",1964
756,"Mikawa-Anjō",34.9684063503195,137.060994706399,"high_speed_rail",1988
757,"Toyohashi",34.7626441254953,137.381194808214,"high_speed_rail",1964
758,"Hamamatsu",34.7034997353151,137.734705419996,"high_speed_rail",1964
759,"Kakegawa",34.7690866559586,138.014816798091,"high_speed_rail",1988
760,"Shizuoka",34.9717005174677,138.389342612491,"high_speed_rail",1964
761,"Nagoya",35.1717100614985,136.880965843246,"high_speed_rail",2027
762,"Gifu Perf (Tentative Name)",35.4801226867042,137.447516082672,"high_speed_rail",2027
763,"Nagoya",35.1708313090696,136.881811130173,"commuter_rail",1900
764,"Kanayama",35.143191841513,136.90113371558,"commuter_rail",1962
765,"Tsurumai",35.1566201695236,136.917749193351,"commuter_rail",1937
766,"Chikusa",35.1669795515571,136.927323458656,"commuter_rail",1900
767,"Chikusa",35.1708590493685,136.930956213318,"commuter_rail",1961
768,"Ōzone",35.1895207203633,136.937168903461,"commuter_rail",1911
769,"Shin-moriyama",35.2068117207394,136.95063510073,"commuter_rail",1964
770,"Kachigawa",35.2304760181981,136.957080951975,"commuter_rail",1900
771,"Toriimatsu",35.2430675795898,136.98509327276,"commuter_rail",1928
772,"Kasugai",35.2430798046361,136.98511588297,"commuter_rail",1946
773,"Jinryō",35.2564525608969,137.010091694511,"commuter_rail",1952
774,"Kōzōji",35.2644894468522,137.04348072742,"commuter_rail",1900
775,"Jōkōji",35.2783435668443,137.081036079883,"commuter_rail",1924
776,"Kokokei",35.3037638691831,137.101663689001,"commuter_rail",1952
777,"Tajimi",35.3348807203845,137.120356725883,"commuter_rail",1900
778,"Tokitsu",35.3597468296221,137.182053841934,"commuter_rail",1903
779,"Tokishi",35.3597735681766,137.182101151347,"commuter_rail",1965
780,"Mizunami",35.3690529509135,137.252387837309,"commuter_rail",1903
781,"Kamado",35.4113357772319,137.305288527206,"commuter_rail",1903
782,"Takenami",35.4373769444268,137.353560055754,"commuter_rail",1926
783,"Ōi",35.4550616974827,137.407630350051,"commuter_rail",1903
784,"Ena",35.4551296661484,137.407754250125,"commuter_rail",1964
785,"Minosakamoto",35.4793674408209,137.449867739666,"commuter_rail",1918
786,"Nakatsu",35.5005959303255,137.502908746951,"commuter_rail",1903
787,"Nakatsugawa",35.5006218552901,137.502922544959,"commuter_rail",1911
