"nodeID","nodeLabel","latitude","longitude","mode","year"
1,"合肥南站",31.8006747,117.284949,"heavy_rail",2016
2,"云谷路",31.7151061,117.2966269,"heavy_rail",2016
3,"葛大店",31.8164754,117.2980607,"heavy_rail",2016
4,"长淮",31.877398,117.3036896,"heavy_rail",2016
5,"明光路",31.8720481,117.299376,"heavy_rail",2016
6,"大东门",31.866049,117.2951864,"heavy_rail",2016
7,"包公园",31.8581424,117.2957752,"heavy_rail",2016
8,"合工大南区",31.8492553,117.2951746,"heavy_rail",2016
9,"朱岗",31.8340853,117.2962775,"heavy_rail",2016
10,"秋浦河路",31.8253713,117.2966571,"heavy_rail",2016
11,"望湖城",31.8075349,117.2868476,"heavy_rail",2016
12,"南站南广场",31.7945451,117.2859739,"heavy_rail",2016
13,"骆岗",31.7850883,117.2860273,"heavy_rail",2016
14,"高王",31.7749326,117.2858732,"heavy_rail",2016
15,"滨湖会展中心",31.7565704,117.297143,"heavy_rail",2016
16,"紫庐",31.7427941,117.2971226,"heavy_rail",2016
17,"塘西河公园",31.7333323,117.297084,"heavy_rail",2016
18,"金斗公园",31.724855,117.2971135,"heavy_rail",2016
19,"合肥火车站",31.8854738,117.3099535,"heavy_rail",2016
20,"万达城",31.7077412,117.2965548,"heavy_rail",2016
21,"万年埠",31.7005585,117.2965231,"heavy_rail",2016
22,"丙子铺",31.6933603,117.2919403,"heavy_rail",2016
23,"九联圩",31.6933279,117.2807373,"heavy_rail",2016
24,"东五里井",31.8697463,117.319171,"heavy_rail",2017
25,"三里街",31.8696326,117.3083085,"heavy_rail",2017
26,"大东门",31.8660103,117.2960013,"heavy_rail",2017
27,"四牌楼",31.8636528,117.2843526,"heavy_rail",2017
28,"三孝口",31.8631765,117.2698479,"heavy_rail",2017
29,"安农大",31.8601773,117.2597556,"heavy_rail",2017
30,"三里庵",31.8567628,117.2504979,"heavy_rail",2017
31,"五里墩",31.8529295,117.2355607,"heavy_rail",2017
32,"西七里塘",31.854338,117.2252666,"heavy_rail",2017
33,"十里庙",31.8566372,117.2177975,"heavy_rail",2017
34,"科学大道",31.8577431,117.2037721,"heavy_rail",2017
35,"天柱路",31.8560321,117.1931659,"heavy_rail",2017
36,"大蜀山",31.8537688,117.1804651,"heavy_rail",2017
37,"蜀山西",31.8533915,117.1629095,"heavy_rail",2017
38,"振兴路",31.8530925,117.1461532,"heavy_rail",2017
39,"汽车西站",31.852956,117.1307517,"heavy_rail",2017
40,"桂庄",31.8526784,117.1213929,"heavy_rail",2017
41,"南岗",31.8525428,117.1101747,"heavy_rail",2017
42,"三十埠",31.8708391,117.3915505,"heavy_rail",2017
43,"王岗",31.8706391,117.3838483,"heavy_rail",2017
44,"龙岗",31.8702902,117.3700876,"heavy_rail",2017
45,"东二十埠",31.8702141,117.3614349,"heavy_rail",2017
46,"漕冲",31.8699786,117.3459355,"heavy_rail",2017
47,"东七里",31.8697767,117.3310595,"heavy_rail",2017
48,"国防科技大学",31.8428983,117.225719,"heavy_rail",2019
49,"西七里塘",31.8544479,117.225379,"heavy_rail",2019
50,"南新庄",31.863707,117.2251691,"heavy_rail",2019
51,"合肥西站",31.8729428,117.2311847,"heavy_rail",2019
52,"杏花村",31.8830364,117.2406184,"heavy_rail",2019
53,"四泉桥",31.8886325,117.2513906,"heavy_rail",2019
54,"郑河",31.8887922,117.2627209,"heavy_rail",2019
55,"海棠",31.8889806,117.2729006,"heavy_rail",2019
56,"一里井",31.8890666,117.2817262,"heavy_rail",2019
57,"淮南路",31.8895545,117.2905385,"heavy_rail",2019
58,"鸭林冲",31.889632,117.3026198,"heavy_rail",2019
59,"合肥火车站",31.8853332,117.3098158,"heavy_rail",2019
60,"竹丝滩",31.8872332,117.325548,"heavy_rail",2019
61,"方庙",31.8869896,117.3365543,"heavy_rail",2019
62,"窦桥湾",31.8869079,117.3467536,"heavy_rail",2019
63,"新海大道",31.8921838,117.3535077,"heavy_rail",2019
64,"勤劳村",31.898942,117.3555475,"heavy_rail",2019
65,"文浍苑",31.9117795,117.3626344,"heavy_rail",2019
66,"幸福坝",31.7532045,117.1754964,"heavy_rail",2019
67,"安大磬苑校区",31.7612727,117.1866665,"heavy_rail",2019
68,"工大翡翠湖校区",31.7674146,117.1996449,"heavy_rail",2019
69,"大学城北",31.7770123,117.2042613,"heavy_rail",2019
70,"繁华大道",31.7842338,117.2043431,"heavy_rail",2019
71,"安医大二附院",31.7918044,117.2043835,"heavy_rail",2019
72,"省博物馆",31.8029773,117.2097964,"heavy_rail",2019
73,"图书馆",31.811075,117.2102199,"heavy_rail",2019
74,"合肥大剧院",31.8163216,117.2184955,"heavy_rail",2019
75,"市政务中心",31.8236767,117.2263734,"heavy_rail",2019
76,"洪岗",31.8341959,117.2259551,"heavy_rail",2019
77,"东七里",31.8705541,117.3328782,"heavy_rail",2021
78,"合肥南站",31.8021253,117.2846057,"heavy_rail",2021
79,"新海公园",31.8983248,117.3366754,"heavy_rail",2021
80,"方庙",31.8869732,117.3366002,"heavy_rail",2021
81,"站塘",31.8778889,117.3352404,"heavy_rail",2021
82,"唐桥",31.856046,117.3300551,"heavy_rail",2021
83,"五里庙",31.8392562,117.3184665,"heavy_rail",2021
84,"尧渡河路",31.8285647,117.3184411,"heavy_rail",2021
85,"工经学院",31.8169121,117.3202881,"heavy_rail",2021
86,"葛大店南",31.8108002,117.3077037,"heavy_rail",2021
87,"望湖城南",31.8067747,117.2967341,"heavy_rail",2021
88,"淝南",31.8016618,117.275611,"heavy_rail",2021
89,"竹西",31.8052209,117.2709344,"heavy_rail",2021
90,"薛河",31.8096861,117.2633985,"heavy_rail",2021
91,"南屏路",31.8104683,117.2519714,"heavy_rail",2021
92,"姚公庙",31.8106185,117.2437655,"heavy_rail",2021
93,"天鹅湖东",31.8110716,117.2330575,"heavy_rail",2021
94,"天鹅湖",31.8102191,117.2221321,"heavy_rail",2021
95,"图书馆",31.8110555,117.2101243,"heavy_rail",2021
96,"青龙岗",31.8315948,117.0827361,"heavy_rail",2021
97,"合肥七中",31.8313716,117.0948259,"heavy_rail",2021
98,"量子科学中心",31.8315648,117.109751,"heavy_rail",2021
99,"科大先研院",31.8318758,117.1286356,"heavy_rail",2021
100,"青龙岗",31.8317025,117.0827359,,
101,"合肥七中",31.8314793,117.0948263,,
102,"量子科学中心",31.8316725,117.1097515,,
103,"北雁湖",31.8228234,117.1521842,"heavy_rail",2021
104,"柳树塘",31.8135999,117.1928129,"heavy_rail",2021
105,"金桂",31.8181355,117.1821851,"heavy_rail",2021
106,"玉兰大道",31.8225878,117.1702309,"heavy_rail",2021
107,"云谷路",31.7151322,117.2965431,"heavy_rail",2020
108,"清水冲",31.7151557,117.2806687,"heavy_rail",2020
109,"云川公园",31.715215,117.2699755,"heavy_rail",2020
110,"华山路",31.7151939,117.3055121,"heavy_rail",2020
111,"滨湖竹园",31.7114159,117.258534,"heavy_rail",2020
112,"沈湾",31.7151675,117.3139418,"heavy_rail",2020
113,"渡江纪念馆",31.7151482,117.3245718,"heavy_rail",2020
114,"扬子江路",31.7547653,117.3330659,"heavy_rail",2020
115,"方兴湖",31.7201533,117.3329373,"heavy_rail",2020
116,"省政务中心东",31.7332716,117.3329734,"heavy_rail",2020
117,"义城",31.742719,117.3330055,"heavy_rail",2020
118,"花园大道",31.7753048,117.328517,"heavy_rail",2020
119,"黄河路",31.7677034,117.328526,"heavy_rail",2020
120,"大连路",31.7875341,117.3265301,"heavy_rail",2020
121,"义兴",31.79647,117.3191601,"heavy_rail",2020
122,"包河苑",31.7956423,117.3117099,"heavy_rail",2020
123,"盛大",31.7945167,117.2963998,"heavy_rail",2020
124,"望湖城西",31.8110378,117.2830325,"heavy_rail",2020
125,"合肥南站",31.8006602,117.2846997,"heavy_rail",2020
126,"贵阳路",31.7012468,117.2584924,"heavy_rail",2020
127,"凌大塘",31.8162043768315,117.27087119559,"heavy_rail",2022
128,"休宁路",31.8206934418955,117.263570189878,"heavy_rail",2022
129,"市第三医院",31.8306780216641,117.265180175123,"heavy_rail",2022
130,"中国科大东区",31.8436971115972,117.267616453646,"heavy_rail",2022
131,"稻香楼",31.8513997569569,117.268436796766,"heavy_rail",2022
132,"杏花公园",31.873060396849,117.273065491691,"heavy_rail",2022
133,"白水坝",31.881455029011,117.272970473152,"heavy_rail",2022
134,"北五里井",31.8994914528631,117.270095960003,"heavy_rail",2022
135,"菱湖公园",31.9181753291335,117.26643152429,"heavy_rail",2022
136,"六中菱湖校区",31.9319375283518,117.264621286177,"heavy_rail",2022
137,"汲桥路",31.9429977202219,117.258311244711,"heavy_rail",2022
138,"瑶海公园",31.8922350094536,117.308694510892,"heavy_rail",2023
139,"兴华苑",31.9055535205558,117.308212004892,"heavy_rail",2023
140,"张洼",31.91978383498,117.31652138489,"heavy_rail",2023
141,"三十埠东",31.8737849781553,117.414174310237,"heavy_rail",2023
142,"祥和",31.8758192273538,117.423990208824,"heavy_rail",2023
143,"桂王",31.8757737591339,117.436843705718,"heavy_rail",2023
144,"对河",31.8744995060386,117.449399057355,"heavy_rail",2023
145,"店埠河",31.8770875426336,117.466181774995,"heavy_rail",2023
146,"排头",31.8730525394711,117.474932489232,"heavy_rail",2023
147,"肥东站",31.8614007150765,117.480275353602,"heavy_rail",2023
148,"和睦湖",31.8538727690203,117.486002066384,"heavy_rail",2023
149,"马桥",31.8468611001997,117.48602703648,"heavy_rail",2023
150,"南沙河",31.8356521417319,117.486474875494,"heavy_rail",2023
151,"撮镇",31.8234909312042,117.486333802415,"heavy_rail",2023
152,"安医一附院南区",31.7437907281312,117.162990662186,"heavy_rail",2023
153,"凉亭",31.7259522910737,117.157162648851,"heavy_rail",2023
154,"李湾",31.7202732998877,117.150698961478,"heavy_rail",2023
155,"四十埠",31.7111784193462,117.151809803987,"heavy_rail",2023
156,"芮祠",31.7024704447982,117.160765358596,"heavy_rail",2023
157,"乐平",31.6964480149827,117.170489441753,"heavy_rail",2023
158,"省儿童医院新区",31.6894638584045,117.170462430526,"heavy_rail",2023
159,"馆驿",31.681057899982,117.153540937744,"heavy_rail",
160,"复兴集",31.8177759249792,117.139454321159,"heavy_rail",2024
161,"长安集",31.8047219554925,117.139511323325,"heavy_rail",2024
162,"桃花潭",31.7842877325904,117.132189198138,"heavy_rail",2024
163,"金小郢",31.7843357776749,117.110825805177,"heavy_rail",2024
164,"铜锣寨路",31.7677546702282,117.086928578106,"heavy_rail",2024
165,"魏庄",31.7611982710694,117.089206310261,"heavy_rail",2024
166,"烧脉岗",31.7570443304974,117.096725813501,"heavy_rail",2024
167,"紫云湖",31.7568335964881,117.11071801514,"heavy_rail",
168,"拉萨路",31.6808427074666,117.265231440085,"heavy_rail",
169,"北城高铁站",32.0653432621703,117.250798337268,"heavy_rail",2024
170,"省立医院北区",32.0462443664705,117.240548929149,"heavy_rail",2024
171,"双墩",32.0309074784522,117.24333750248,"heavy_rail",2024
172,"北城世纪城",32.0124027632046,117.242598362592,"heavy_rail",2024
173,"梅冲湖",31.99657976671,117.248607300165,"heavy_rail",2024
174,"金梅路",31.9794914171246,117.249297432653,"heavy_rail",2024
175,"双凤",31.958868620982,117.251429646493,"heavy_rail",2024
176,"荷塘路",31.9383100197977,117.254183654963,"heavy_rail",2024
177,"庐阳经开区",31.9242901805606,117.27487146261,"heavy_rail",2024
178,"杏林",31.9052924685324,117.278727778028,"heavy_rail",2024
179,"南七里",31.8320438645171,117.25236096244,"heavy_rail",
180,"炮兵防空兵学院",31.8326638633021,117.240601600882,"heavy_rail",
181,"松荫桥",31.8357185853691,117.216000816408,"heavy_rail",
182,"梦城",31.8346224881426,117.196545287733,"heavy_rail",
183,"开福寺",31.833756326843,117.177538297695,"heavy_rail",
184,"卫岗",31.8330172715388,117.280748061862,"heavy_rail",
185,"唐大楼",31.8305730976864,117.330213452285,"heavy_rail",
186,"市儿童医院",31.8384698749534,117.348995143361,"heavy_rail",
187,"市博物馆",31.8339575016669,117.360848381358,"heavy_rail",
188,"钢红",31.8300828872619,117.372026078845,"heavy_rail",
189,"大兴集",31.8376937274671,117.379775389371,"heavy_rail",
190,"伏龙",31.8397864345836,117.392883035281,"heavy_rail",
191,"龙塘",31.8383669354468,117.411502013286,"heavy_rail",
192,"合肥四中",31.7426366386059,117.343292323932,"heavy_rail",
193,"省文化和非遗馆",31.7427580874165,117.319189047024,"heavy_rail",
194,"嵩山路",31.7427787252932,117.309643019523,"heavy_rail",
195,"滨湖医院",31.742785895927,117.286061675613,"heavy_rail",
196,"要素大市场",31.7521342146987,117.280300321421,"heavy_rail",
197,"南艳湖南",31.757936113897,117.264732002916,"heavy_rail",
198,"合肥大学",31.7552841812368,117.254156493096,"heavy_rail",
199,"一六八中学",31.7618957547326,117.244450417843,"heavy_rail",
200,"南艳湖北",31.7726599378593,117.244804120312,"heavy_rail",
201,"明珠广场",31.7783125633861,117.225890211856,"heavy_rail",
202,"天都路",31.7783357343654,117.232895267072,"heavy_rail",
203,"徽园",31.7827562569557,117.215854588866,"heavy_rail",
204,"翡翠公园",31.7841550995123,117.1901119326,"heavy_rail",
205,"五里墩",31.8541892740447,117.236113744302,"heavy_rail",
206,"史河路",31.864565282658,117.236102759421,"heavy_rail",
207,"合肥西站",31.8743880194813,117.231955348126,"heavy_rail",
208,"固镇路",31.8911640509881,117.217654886082,"heavy_rail",
209,"四里河路",31.9211424217691,117.207587088422,"heavy_rail",
