"nodeID","nodeLabel","latitude","longitude","mode","year"
1,"Maigaoqiao",32.1049648163425,118.804496302414,"default",2005
2,"Hongshan Zoo",32.0980202868189,118.79696592853,"default",2005
3,"Nanjing Railway Station",32.0881738829126,118.791091047333,"default",2005
4,"Xinmofan­malu",32.0819855253228,118.778573672561,"default",2005
5,"Xuanwumen",32.0723815031038,118.778871484685,"default",2005
6,"Gulou",32.0609663041627,118.778349707834,"default",2005
7,"Zhujianglu",32.0524870131782,118.779039050643,"default",2005
8,"Xinjiekou",32.0438166521513,118.778877839785,"default",2005
9,"Zhangfuyuan",32.032877081631,118.778697854161,"default",2005
10,"Sanshanjie",32.0248848533494,118.77629446852,"default",2005
11,"Zhonghuamen",32.0086105619352,118.769211647355,"default",2005
12,"Andemen",31.9936673930176,118.756442141427,"default",2005
13,"Tianlongsi",31.9816998432691,118.757825578268,"default",2010
14,"Ruanjiandadao",31.9787407213429,118.769516867355,"default",2010
15,"Huashenmiao",31.9799296276393,118.780529797915,"default",2010
16,"Nanjing South Railway Station",31.9718697709162,118.791994957649,"default",2011
17,"Shuanglongdadao",31.9661087289063,118.812200935321,"default",2010
18,"Hedingqiao",31.9550594719778,118.814851188748,"default",2010
19,"Shengtailu",31.9456921300319,118.816296155128,"default",2010
20,"Baijiahu",31.9341453091845,118.816256122063,"default",2010
21,"Xiaolongwan",31.9320334096985,118.82879189983,"default",2010
22,"Zhushanlu",31.9342804542201,118.839580727006,"default",2010
23,"Tianyindadao",31.9398844257704,118.858738508672,"default",2010
24,"Longmiandadao",31.942090150181,118.872311780004,"default",2010
25,"NMU / JITT (Nanjing Medical University – Jiangsu Institute of Economic and Trade Technology)",31.9352557548184,118.885566055901,"default",2010
26,"NJCI (Nanjing Communications Institute of Technology)",31.9148643849341,118.900023175714,"default",2010
27,"CPU (China Pharmaceutical University)",31.8997259385364,118.909217390056,"default",2010
28,"Youfangqiao",31.9681336062185,118.716183704254,"default",2010
29,"Yurundajie",31.9855971242008,118.717408933709,"default",2010
30,"Yuantong",31.9979468995253,118.71643930234,"default",2010
31,"Aoti Dong (Olympic Stadium East)",32.0067853967624,118.723789490518,"default",2010
32,"Xinglongdajie",32.020548536773,118.731834449431,"default",2010
33,"Jiqingmen­dajie",32.0296327537397,118.734275974174,"default",2010
34,"Yunjinlu",32.0370822201423,118.741498725818,"default",2010
35,"Mochouhu",32.0393881396175,118.753694189976,"default",2010
36,"Hanzhongmen",32.0448723497048,118.763721635255,"default",2010
37,"Shanghailu",32.0443973704265,118.770808030264,"default",2010
38,"Xinjiekou",32.0438344992342,118.778891952241,"default",2010
39,"Daxinggong",32.0431606641638,118.789338231563,"default",2010
40,"Xi'anmen",32.0423753289371,118.799832326995,"default",2010
41,"Minggugong",32.0412329382708,118.814432381638,"default",2010
42,"Muxuyuan",32.0424231376833,118.829993240855,"default",2010
43,"Xiamafang",32.0397658596047,118.843268167299,"default",2010
44,"Xiaolingwei",32.0375490012532,118.852124464101,"default",2010
45,"Zhonglingjie",32.0410442691256,118.863969244305,"default",2010
46,"Maqun",32.0518388166418,118.889311678379,"default",2010
47,"Jinmalu",32.0745451255095,118.900274144756,"default",2010
48,"Xianhemen",32.0870757201584,118.899624019086,"default",2010
49,"Xuezelu",32.0930855612915,118.910833488046,"default",2010
50,"Xianlin Zhongxin",32.101075008606,118.925589325318,"default",2010
51,"Yangshan­ Gongyuan",32.1060272457255,118.934968147905,"default",2010
52,"Nanda Xian Lin Xiaoqu (Nanjing University Xianlin Campus)",32.1109130585654,118.954410659567,"default",2010
53,"Jingtianlu",32.1183018701868,118.971623765571,"default",2010
54,"Linchang",32.1657769446374,118.666381329268,"default",2015
55,"Xinghuolu",32.1594801874663,118.691503238166,"default",2015
56,"SEU Chengxian College",32.15855,118.702152740179,"default",2015
57,"Taifenglu",32.1560222582108,118.712343081559,"default",2015
58,"Tianruncheng",32.1530276599601,118.728773669816,"default",2015
59,"Liuzhou­donglu",32.1423915078353,118.741162231875,"default",2015
60,"Shangyuanmen",32.1183877304392,118.763691272412,"default",2015
61,"Wutang­guangchang",32.1124040269328,118.772611600491,"default",2015
62,"Xiaoshi",32.0980187543951,118.7801,"default",2015
63,"Nanjing Railway Station",32.0908853825985,118.791480114787,"default",2015
64,"NFU / Xinzhuang ",32.0785329241258,118.805169659343,"default",2015
65,"Jimingsi",32.059365633862,118.792721879429,"default",2015
66,"Daxinggong",32.0429062536342,118.789398378595,"default",2015
67,"Fuqiao",32.0501660778414,118.790480052884,"default",2015
68,"Changfujie",32.0355970000505,118.787141369926,"default",2015
69,"Fuzimiao",32.025959647453,118.785717746884,"default",2015
70,"Wudingmen",32.0151477959597,118.789273246081,"default",2015
71,"Yuhuamen",32.0058093621235,118.787014161501,"default",2015
72,"Kazimen",31.9968938851009,118.79041274373,"default",2015
73,"Daminglu",31.9876500488139,118.794680955385,"default",2015
74,"Mingfaguangchang",31.9788243873136,118.795578867494,"default",2015
75,"Nanjing South Railway Station",31.9720372559351,118.792146974581,"default",2015
76,"Hongyun­dadao",31.9617880184159,118.797035201378,"default",0
77,"Shengtai­xilu",31.9450244760352,118.802262474306,"default",2015
78,"Tianyuan­xilu",31.9292932492087,118.803498654225,"default",2015
79,"Jiulonghu",31.917971570604,118.815516991449,"default",2015
80,"Chengxin­dadao",31.9113249995099,118.824724221027,"default",2015
81,"SEU Jiulonghu Campus",31.8977279026085,118.825563852639,"default",2015
82,"Mozhou­donglu",31.8711047817103,118.825802739449,"default",2015
83,"Longjiang",32.0600952439812,118.734624285937,"default",2017
84,"NUA / JSSNU / Caochangmen",32.0625562682385,118.750819282464,"default",2017
85,"Yunnanlu",32.061221407185,118.769010310532,"default",2017
86,"Gulou",32.0608831311993,118.777967072928,"default",2017
87,"Jimingsi",32.0594563629451,118.791548440052,"default",2017
88,"Jiuhuashan",32.0594361218372,118.800639371291,"default",2017
89,"Gangzicun",32.0675529881766,118.810915959812,"default",2017
90,"Jiangwangmiao",32.0791042598078,118.82576581047,"default",2017
91,"Wangjiawan",32.0874387118437,118.831942853192,"default",2017
92,"Jubaoshan",32.0956410698661,118.860134638486,"default",2017
93,"Xuzhuang",32.0872223735987,118.883902107101,"default",2017
94,"Jinmalu",32.0745132550352,118.900053900963,"default",2017
95,"Huitonglu",32.0800178698927,118.925971251325,"default",2017
96,"Lingshan",32.0803009809898,118.939009928159,"default",2017
97,"Dongliu",32.0795733493109,118.959594554851,"default",2017
98,"Mengbei",32.0862959226681,118.982069386189,"default",2017
99,"Xiganghuashu",32.1012339474526,118.991918110098,"default",2017
100,"Xianlinhu",32.1274635359726,118.987411330607,"default",2017
101,"Andemen",31.9932780160406,118.756087602677,"default",2014
102,"Xiaohang",31.9845349516629,118.73998939264,"default",2010
103,"Zhongsheng",31.9902800502796,118.728009157996,"default",2010
104,"Yuantong",31.997685851404,118.716629288746,"default",2010
105,"Aoti Zhongxin (Olympic Stadium)",32.0103413018147,118.712655994651,"default",0
106,"Mengdu­dajie",32.0176209314374,118.716654847839,"default",2010
107,"Lüboyuan",32.0264548638439,118.711665628979,"default",2010
108,"Jiangxinzhou",32.0334652174827,118.698074091576,"default",2010
109,"Linjianglu",32.0598141505455,118.660467174157,"default",2010
110,"Pukou­wanhuicheng",32.0639995865637,118.651741568895,"default",2010
111,"Nanjing Gongye Daxue (Nanjing University of Technology)",32.0688053360866,118.643192426622,"default",2010
112,"Longhualu",32.0669934161472,118.630134950324,"default",2010
113,"Wendelu",32.0597443298598,118.621776929498,"default",2010
114,"Yushanlu",32.0468649312465,118.610351326701,"default",2010
115,"Taishan­xincun",32.1464439229568,118.711035685806,"default",2014
116,"Taifenglu",32.1565561265792,118.713863482288,"default",2014
117,"Gaoxin Development Zone",32.1797271755485,118.714421898294,"default",2014
118,"NUIST",32.2046306729252,118.721650021466,"default",2014
119,"Xiejiadian",32.2167740866203,118.725261946472,"default",2016
120,"Dachang",32.2310305009818,118.734910041776,"default",2014
121,"Getang",32.2466086125581,118.74843775906,"default",2014
122,"Changlu",32.2755901905992,118.771442363187,"default",2014
123,"Huagongyuan",32.2878378086909,118.780557026692,"default",2014
124,"Luhe Development Zone",32.307330206662,118.800349293385,"default",2014
125,"Longchi",32.3213529619864,118.815394961543,"default",2014
126,"Xiongzhou",32.3369582396987,118.832012714236,"default",2014
127,"Fenghuangshan­gongyuan",32.3486333536424,118.839804512671,"default",2014
128,"Fangzhou­guangchang",32.361314707891,118.844943620813,"default",2014
129,"Shenqiao",32.4024721761188,118.887243090079,"default",2014
130,"Babaiqiao",32.4296634250186,118.928699656867,"default",2014
131,"Jinniuhu",32.4674038367164,118.959309346326,"default",2014
132,"Changjiangdaqiaobei",32.1308574387522,118.724670570229,"default",2022
133,"Nanjing South Railway Station",31.9729983624713,118.792063811951,"default",2015
134,"Cuipingshan",31.9451602245588,118.7793147926,"default",2015
135,"HHU / Fochengxilu",31.9145229048031,118.786232989507,"default",2015
136,"Jiyindadao",31.8872320289585,118.790876776977,"default",2015
137,"Zhengfang­zhonglu",31.8470328337819,118.800599358796,"default",2015
138,"Xiangyulubei",31.7932521391028,118.816344390354,"default",2015
139,"Xiangyulunan",31.7567388923751,118.8241432919,"default",2015
140,"Lukou International Airport",31.7338635533595,118.870559726463,"default",2015
141,"Konggangxinchengjiangning",31.7401456238169,118.882817767752,"default",2015
142,"Zhetang",31.7588731371918,118.932871770367,"default",2018
143,"Konggangxinchenglishui",31.7358403837326,118.984214302658,"default",2018
144,"Qunli",31.7228549480471,119.009139974821,"default",2018
145,"Wolonghu",31.6881507873059,119.037862424762,"default",2018
146,"Lishui",31.6639277663522,119.039132596061,"default",2018
147,"Zhongshanhu",31.6486142729191,119.039854779982,"default",2018
148,"Xingzhuang",31.6328252012738,119.040541885451,"default",2018
149,"Wuxiangshan",31.622198128622,119.040826583271,"default",2018
150,"Nanjing South Railway Station",31.973098567065,118.79158,"default",2017
151,"Jingmingjiayuan",31.9640801370014,118.773678396529,"default",2017
152,"Tiexinqiao",31.9663519152705,118.758403050646,"default",2017
153,"Chunjianglu",31.9644202924657,118.742766057213,"default",2017
154,"Jiaxi",31.9586608122483,118.729602109461,"default",2017
155,"Youfangqiao",31.9683640333663,118.713857635706,"default",2017
156,"Yongchulu",31.9759825888833,118.707118654793,"default",2017
157,"Pingliangdajie",31.9797509701271,118.697318463503,"default",2017
158,"Wuhoujie",31.9774809086512,118.687663640302,"default",2017
159,"Gaomiaolu",31.9701383734559,118.683032919727,"default",2017
160,"Tianbao",31.9552213610777,118.672209396476,"default",2017
161,"Liucun",31.946296032846,118.659824755175,"default",2017
162,"Lanhuatang",31.9605535069211,118.569750063849,"default",2017
163,"Shuanglong",31.9504242667179,118.562516286987,"default",2017
164,"Shiqihe",31.9401304184902,118.552908134523,,2017
165,"Qiaolinxincheng",31.9321358505565,118.542596972028,"default",2017
166,"Linshan",31.9208565618956,118.525991593029,"default",2017
167,"Gaojiachong",31.9112643401639,118.512218764301,"default",2017
168,"Maluowei",31.9752768035391,118.583345196045,"default",2014
169,"26028",31.9483728047578,118.683657413699,"default",
170,"26029",31.9632595512544,118.696518660746,"default",
171,"26030",31.9684600695209,118.698119808704,"default",
172,"26031",31.9770329194943,118.7079059724,"default",
173,"26032",31.9843528000794,118.722752453596,"default",
174,"26033",31.989676462941,118.727812971244,"default",
175,"26034",31.9960013701644,118.733220513442,"default",
176,"26035",32.0052615621389,118.740773574046,"default",
177,"26036",32.0184028258717,118.743970204499,"default",
178,"26037",32.0255885614624,118.748943359539,"default",
179,"26038",32.0334468953366,118.751965416698,"default",
180,"26039",32.0394753784521,118.754392223505,"default",
181,"26040",32.0499210218837,118.754543518889,"default",
182,"26041",32.0629233668673,118.750555665871,"default",
183,"26042",32.0745291936599,118.752338965304,"default",
184,"26043",32.081894887657,118.754221645734,"default",
185,"26044",32.0933449522678,118.766522889754,"default",
186,"Mufuxilu",32.1075892697815,118.766214218747,"default",2022
187,"Wutangguangchang",32.1126458861515,118.773030557039,"default",2022
188,"Mufushan",32.1165382772963,118.793361528286,"default",2022
189,"Xiaozhuang",32.1192414126421,118.813329414696,"default",2022
190,"Wanshou",32.1217516388752,118.830058954428,"default",2022
191,"Dingjiazhuang",32.1124388532889,118.846234141074,"default",2022
192,"Dingjiazhuangnan",32.109736383301,118.854900278777,"default",2022
193,"Yaohuaxincun",32.1177958801733,118.871145319846,"default",2022
194,"Yaohuamen",32.1250474432136,118.883124193868,"default",2022
195,"Xianxinlu",32.1291502659001,118.890704689035,"default",2022
196,"26055",32.0980076614994,118.736173733858,"default",2023
197,"26056",32.0939604025363,118.732939953549,"default",2023
198,"26057",32.0890361463426,118.736037109034,"default",2023
199,"26058",32.0875557907687,118.747571543932,"default",2023
200,"26059",32.0817517776192,118.754933305828,"default",2023
201,"26060",32.0769562154401,118.760461997522,"default",2023
202,"26061",32.0709890573636,118.767277510841,"default",2023
203,"26062",32.0619932471622,118.769352019942,"default",2023
204,"26063",32.0523786801448,118.771100289247,"default",2023
205,"26064",32.0434070992454,118.770819396122,"default",2023
206,"26065",32.0346257321951,118.76731520774,"default",2023
207,"26066",32.0256228071311,118.777253827705,"default",2023
208,"26067",32.0256900641146,118.78620386978,"default",2023
209,"26068",32.0275920765329,118.799694561059,"default",2023
210,"26069",32.02555394343,118.80986515152,"default",2023
211,"26070",32.0196287081454,118.819766109985,"default",2023
212,"26071",32.010844319635,118.820316233842,"default",2023
213,"26072",31.9978599127888,118.814796886164,"default",2023
214,"26073",31.9913372140258,118.819970071899,"default",2023
215,"26074",31.9739129155343,118.834207463898,"default",2023
216,"26075",31.9554063471155,118.838664541562,"default",2023
217,"26076",31.9445381495162,118.840477550996,"default",2023
218,"26077",31.9349362055299,118.840564280724,"default",
219,"26078",31.9250656846404,118.845065842248,"default",2023
220,"26079",31.9124644766108,118.839022480111,"default",2023
221,"26080",31.9113199134787,118.826357621492,"default",2023
222,"26081",31.9084187436134,118.81390533429,"default",2023
223,"26082",31.8950310128949,118.805035617176,"default",2023
224,"26083",31.8888278161989,118.790924960502,"default",2023
225,"Xiaozhuang",32.120311173809,118.813159097826,"default",2022
226,"Jixiang'an",32.1288278060409,118.81613871172,"default",2022
227,"Baguazhoudaqiaonan",32.1480856626558,118.837842254889,"default",2022
228,"Badoushan",32.1454870902171,118.824522334441,"default",2022
229,"Yanziji",32.1352493142487,118.817514926173,"default",2022
230,"Tongshan",31.6981868918832,118.876643223525,"default",2017
231,"Shiqiu",31.6426427212542,118.902360704204,"default",2017
232,"Mingjue",31.5486600249704,118.897244237059,"default",2017
233,"Tuanjiewei",31.3980366609744,118.882854026499,"default",2017
234,"Gaochun",31.3433583142594,118.872266483134,"default",2017
235,"Luotanglu",31.9628070577624,118.696112184482,"default",2021
236,"Qinglianjie",31.9644590520028,118.686328605399,"default",2021
237,"Tianbaojie",31.9681724120193,118.672539503145,"default",2021
238,"Yuzhui",31.9693174036984,118.661648160457,"default",2021
239,"26134",31.9954161548455,118.768951895594,"default",2023
240,"26135",31.9945588937468,118.777958653869,"default",2023
241,"26136",31.9968004372073,118.791614992883,"default",2023
242,"26137",31.9941528867035,118.808534127538,,2023
243,"26138",31.9981452233963,118.815378745293,,2023
244,"26139",32.0032092423052,118.824113440188,"default",2023
245,"26140",32.0102586550614,118.849976307125,"default",2023
246,"26141",32.0069200497931,118.868125223423,"default",2023
247,"26142",32.0029296969059,118.880535981804,"default",2023
248,"26143",32.0070523915364,118.837046527941,"default",2023
249,"Nanjingyuanrendong",32.0634116,119.0469372,"default",2021
250,"Guquan",32.0513626,119.0039371,"default",2021
251,"Tangshan",32.0499895,119.0627814,"default",2021
252,"Quandudajie",32.0351083,119.0468484,"default",2021
253,"Jurong",31.9239851,119.1646182,"default",2021
254,"Chongming",31.9448645,119.1732918,"default",2021
255,"Huayang",31.9744447,119.1749312,"default",2021
256,"Huangmei",32.0099683,119.11063,"default",2021
257,"Tongshijie",31.9936634,119.1584716,"default",2021
258,"Maqun",32.0516337,118.8897501,"default",2021
259,"Qilinmen",32.0551504,118.9225458,"default",2021
260,"Baishuiqiao",32.055562,118.9096735,"default",2018
261,"Dongjiaoxiaozhen",32.0539695,118.9477247,"default",2021
262,"Maofangchanglu",32.1367082884966,118.72149495807,"default",2022
263,"Konggangxinchengjiangning",31.7400533166119,118.883101597683,"default",2018
264,"Xiangyulunan",31.7568559525674,118.824358518652,"default",2017
